{"type": "FeatureCollection", "features": [{"type": "Feature", "properties": {"routenumber": 1001, "shift": 1550, "starttime": "7:53:00 AM", "vehiclestyle": "Euro", "description": "Forde, Bonner, Amaroo, Ngunnawal", "address": "1021 Gungahlin Dr, Nicholls", "phone": "(02) 6163 4800", "school_name": "St John Paul II College", "website": "https://www.transport.act.gov.au/getting-around/getting-to-school", "location": "POINT (149.1008999 -35.17702592)"}, "geometry": {"type": "Point", "coordinates": [149.1008999, -35.17702592]}}, {"type": "Feature", "properties": {"routenumber": 1002, "shift": 1041, "starttime": "8:33:00 AM", "vehiclestyle": "IRIS", "description": "Gungahlin Place Non Stop", "address": "1021 Gungahlin Dr, Nicholls", "phone": "(02) 6163 4800", "school_name": "St John Paul II College", "website": "https://www.transport.act.gov.au/getting-around/getting-to-school", "location": "POINT (149.1008999 -35.17702592)"}, "geometry": {"type": "Point", "coordinates": [149.1008999, -35.17702592]}}, {"type": "Feature", "properties": {"routenumber": 1009, "shift": 1034, "starttime": "7:23:00 AM", "vehiclestyle": "PR 3", "description": "Ngunnawal, Moncrieff, Amaroo, Bonner", "address": "4 The Valley Avenue, Gungahlin", "phone": "(02) 6255 7700", "school_name": "Burgmann Anglican School Valley Campus", "website": "https://www.transport.act.gov.au/getting-around/getting-to-school", "location": "POINT (149.1236662 -35.18784524)"}, "geometry": {"type": "Point", "coordinates": [149.1236662, -35.18784524]}}, {"type": "Feature", "properties": {"routenumber": 1001, "shift": 1358, "starttime": "8:05:00 AM", "vehiclestyle": "Euro", "description": "Bonner, Amaroo, Ngunnawal", "address": "1021 Gungahlin Dr, Nicholls", "phone": "(02) 6163 4800", "school_name": "St John Paul II College", "website": "https://www.transport.act.gov.au/getting-around/getting-to-school", "location": "POINT (149.1008999 -35.17702592)"}, "geometry": {"type": "Point", "coordinates": [149.1008999, -35.17702592]}}, {"type": "Feature", "properties": {"routenumber": 1002, "shift": 1605, "starttime": "3:44:00 PM", "vehiclestyle": "Euro", "description": "Gungahlin Place Non Stop", "address": "1021 Gungahlin Dr, Nicholls", "phone": "(02) 6163 4800", "school_name": "St John Paul II College", "website": "https://www.transport.act.gov.au/getting-around/getting-to-school", "location": "POINT (149.1008999 -35.17702592)"}, "geometry": {"type": "Point", "coordinates": [149.1008999, -35.17702592]}}, {"type": "Feature", "properties": {"routenumber": 1003, "shift": 1412, "starttime": "3:45:00 PM", "vehiclestyle": "Euro", "description": "Gungahlin, Throsby, Harrison, Franklin, Palmerston", "address": "1021 Gungahlin Dr, Nicholls", "phone": "(02) 6163 4800", "school_name": "St John Paul II College", "website": "https://www.transport.act.gov.au/getting-around/getting-to-school", "location": "POINT (149.1008999 -35.17702592)"}, "geometry": {"type": "Point", "coordinates": [149.1008999, -35.17702592]}}, {"type": "Feature", "properties": {"routenumber": 1001, "shift": 1433, "starttime": "3:51:00 PM", "vehiclestyle": "Euro", "description": "Forde, Bonner, Amaroo, Ngunnawal", "address": "1021 Gungahlin Dr, Nicholls", "phone": "(02) 6163 4800", "school_name": "St John Paul II College", "website": "https://www.transport.act.gov.au/getting-around/getting-to-school", "location": "POINT (149.1008999 -35.17702592)"}, "geometry": {"type": "Point", "coordinates": [149.1008999, -35.17702592]}}, {"type": "Feature", "properties": {"routenumber": 1002, "shift": 1547, "starttime": "3:54:00 PM", "vehiclestyle": "PR 3", "description": "Gungahlin Place Non Stop", "address": "1021 Gungahlin Dr, Nicholls", "phone": "(02) 6163 4800", "school_name": "St John Paul II College", "website": "https://www.transport.act.gov.au/getting-around/getting-to-school", "location": "POINT (149.1008999 -35.17702592)"}, "geometry": {"type": "Point", "coordinates": [149.1008999, -35.17702592]}}, {"type": "Feature", "properties": {"routenumber": 1001, "shift": 1414, "starttime": "3:57:00 PM", "vehiclestyle": "Euro", "description": "Forde, Bonner, Amaroo, Ngunnawal", "address": "1021 Gungahlin Dr, Nicholls", "phone": "(02) 6163 4800", "school_name": "St John Paul II College", "website": "https://www.transport.act.gov.au/getting-around/getting-to-school", "location": "POINT (149.1008999 -35.17702592)"}, "geometry": {"type": "Point", "coordinates": [149.1008999, -35.17702592]}}, {"type": "Feature", "properties": {"routenumber": 1009, "shift": 1622, "starttime": "3:25:00 PM", "vehiclestyle": "Euro", "description": "Ngunnawal, Moncrieff, Amaroo, Bonner", "address": "4 The Valley Avenue, Gungahlin", "phone": "(02) 6255 7700", "school_name": "Burgmann Anglican School Valley Campus", "website": "https://www.transport.act.gov.au/getting-around/getting-to-school", "location": "POINT (149.1236662 -35.18784524)"}, "geometry": {"type": "Point", "coordinates": [149.1236662, -35.18784524]}}, {"type": "Feature", "properties": {"routenumber": 1018, "shift": 1629, "starttime": "3:35:00 PM", "vehiclestyle": "PR 3", "description": "Crace, Giralang, Kaleen", "address": "73 Davenport St, Dickson", "phone": "(02) 6247 7151", "school_name": "Emmaus Christian School", "website": "https://www.transport.act.gov.au/getting-around/getting-to-school", "location": "POINT (149.1428789 -35.25344606)"}, "geometry": {"type": "Point", "coordinates": [149.1428789, -35.25344606]}}, {"type": "Feature", "properties": {"routenumber": 1003, "shift": 1357, "starttime": "7:58:00 AM", "vehiclestyle": "Euro", "description": "Gungahlin, Throsby, Harrison, Franklin, Palmerston", "address": "1021 Gungahlin Dr, Nicholls", "phone": "(02) 6163 4800", "school_name": "St John Paul II College", "website": "https://www.transport.act.gov.au/getting-around/getting-to-school", "location": "POINT (149.1008999 -35.17702592)"}, "geometry": {"type": "Point", "coordinates": [149.1008999, -35.17702592]}}, {"type": "Feature", "properties": {"routenumber": 1002, "shift": 1341, "starttime": "8:26:00 AM", "vehiclestyle": "Std", "description": "Gungahlin Place Non Stop", "address": "1021 Gungahlin Dr, Nicholls", "phone": "(02) 6163 4800", "school_name": "St John Paul II College", "website": "https://www.transport.act.gov.au/getting-around/getting-to-school", "location": "POINT (149.1008999 -35.17702592)"}, "geometry": {"type": "Point", "coordinates": [149.1008999, -35.17702592]}}, {"type": "Feature", "properties": {"routenumber": 1023, "shift": 1450, "starttime": "3:31:00 PM", "vehiclestyle": "Euro", "description": "Bonner, Amaroo, Gungahlin", "address": "121 Cowper Street, Dickson", "phone": "(02) 6245 6300", "school_name": "Daramalan College", "website": "https://www.transport.act.gov.au/getting-around/getting-to-school", "location": "POINT (149.1389186 -35.25300846)"}, "geometry": {"type": "Point", "coordinates": [149.1389186, -35.25300846]}}, {"type": "Feature", "properties": {"routenumber": 2047, "shift": 2534, "starttime": "7:51:00 AM", "vehiclestyle": "Std", "description": "Hughes, Garran", "address": "27 Marr Street, Pearce", "phone": "(02) 6298 7271", "school_name": "Marist College Canberra", "website": "https://www.transport.act.gov.au/getting-around/getting-to-school", "location": "POINT (149.0882278 -35.35945117)"}, "geometry": {"type": "Point", "coordinates": [149.0882278, -35.35945117]}}, {"type": "Feature", "properties": {"routenumber": 1045, "shift": 1318, "starttime": "6:58:00 AM", "vehiclestyle": "Euro", "description": "Gungahlin Place, Ngunnawal, Casey, Nicholls, Spence, Melba", "address": "Copland Drive, Melba", "phone": "(02) 6142 0333", "school_name": "Melba Copland Secondary School 11-12", "website": "https://www.transport.act.gov.au/getting-around/getting-to-school", "location": "POINT (149.0588667 -35.21250506)"}, "geometry": {"type": "Point", "coordinates": [149.0588667, -35.21250506]}}, {"type": "Feature", "properties": {"routenumber": 1032, "shift": 1353, "starttime": "3:11:00 PM", "vehiclestyle": "Euro", "description": "Ainslie, Hackett", "address": "24 White Cres, Campbell", "phone": "(02) 6249 8869", "school_name": "St Thomas More's Primary School", "website": "https://www.transport.act.gov.au/getting-around/getting-to-school", "location": "POINT (149.1556876 -35.28732792)"}, "geometry": {"type": "Point", "coordinates": [149.1556876, -35.28732792]}}, {"type": "Feature", "properties": {"routenumber": 2073, "shift": 2532, "starttime": "7:43:00 AM", "vehiclestyle": "Std", "description": "Waramanga, Fisher, Stirling, Rivett, Chapman", "address": "34 McBryde Cres, Wanniassa", "phone": "(02) 6231 4177", "school_name": "Trinity Christian School", "website": "https://www.transport.act.gov.au/getting-around/getting-to-school", "location": "POINT (149.0865327 -35.40790103)"}, "geometry": {"type": "Point", "coordinates": [149.0865327, -35.40790103]}}, {"type": "Feature", "properties": {"routenumber": 2042, "shift": 2005, "starttime": "7:34:00 AM", "vehiclestyle": "PR 3", "description": "Lanyon Marketplace, Gordon, Banks, Conder", "address": "27 Marr Street, Pearce", "phone": "(02) 6298 7271", "school_name": "Marist College Canberra", "website": "https://www.transport.act.gov.au/getting-around/getting-to-school", "location": "POINT (149.0882278 -35.35945117)"}, "geometry": {"type": "Point", "coordinates": [149.0882278, -35.35945117]}}, {"type": "Feature", "properties": {"routenumber": 2038, "shift": 2618, "starttime": "3:21:00 PM", "vehiclestyle": "Std", "description": "Woden Interchange Non Stop", "address": "41 Marr Street, Pearce", "phone": "(02) 6142 0700", "school_name": "Melrose High School", "website": "https://www.transport.act.gov.au/getting-around/getting-to-school", "location": "POINT (149.0885994 -35.36276738)"}, "geometry": {"type": "Point", "coordinates": [149.0885994, -35.36276738]}}, {"type": "Feature", "properties": {"routenumber": 2016, "shift": 2621, "starttime": "3:30:00 PM", "vehiclestyle": "Std", "description": "Garran, Hughes, Deakin", "address": "15 Alexander Street, 18 Golden Grove, Red Hill", "phone": "(02) 6260 9600", "school_name": "Canberra Grammar Junior School", "website": "https://www.transport.act.gov.au/getting-around/getting-to-school", "location": "POINT (149.124805 -35.33241923)"}, "geometry": {"type": "Point", "coordinates": [149.124805, -35.33241923]}}, {"type": "Feature", "properties": {"routenumber": 2071, "shift": 2543, "starttime": "7:58:00 AM", "vehiclestyle": "Std", "description": "Chisholm Centre, Chisholm, Gilmore, Richardson", "address": "90 Ellerston Ave, Isabella Plains", "phone": "(02) 6209 0100", "school_name": "St Mary Mackillop College - Senior Campus", "website": "https://www.transport.act.gov.au/getting-around/getting-to-school", "location": "POINT (149.0931127 -35.42505875)"}, "geometry": {"type": "Point", "coordinates": [149.0931127, -35.42505875]}}, {"type": "Feature", "properties": {"routenumber": 2014, "shift": 2214, "starttime": "3:30:00 PM", "vehiclestyle": "Euro", "description": "Woden Interchange Non Stop", "address": "15 Alexander Street, 18 Golden Grove, Red Hill", "phone": "(02) 6260 9600", "school_name": "Canberra Grammar Junior School", "website": "https://www.transport.act.gov.au/getting-around/getting-to-school", "location": "POINT (149.124805 -35.33241923)"}, "geometry": {"type": "Point", "coordinates": [149.124805, -35.33241923]}}, {"type": "Feature", "properties": {"routenumber": 1029, "shift": 1617, "starttime": "3:21:00 PM", "vehiclestyle": "IRIS", "description": "Belconnen Interchanges", "address": "68 Brigalow Street, Lyneham", "phone": "(02) 6142 1720", "school_name": "Lyneham Primary School", "website": "https://www.transport.act.gov.au/getting-around/getting-to-school", "location": "POINT (149.1256275 -35.2514168)"}, "geometry": {"type": "Point", "coordinates": [149.1256275, -35.2514168]}}, {"type": "Feature", "properties": {"routenumber": 2073, "shift": 2532, "starttime": "7:43:00 AM", "vehiclestyle": "Std", "description": "Waramanga, Fisher, Stirling, Rivett, Chapman", "address": "12 Mackinnon Street, Wanniassa", "phone": "(02) 6209 0100", "school_name": "St Mary Mackillop College - Junior Campus", "website": "https://www.transport.act.gov.au/getting-around/getting-to-school", "location": "POINT (149.0899328 -35.40541396)"}, "geometry": {"type": "Point", "coordinates": [149.0899328, -35.40541396]}}, {"type": "Feature", "properties": {"routenumber": 2043, "shift": 2045, "starttime": "7:19:00 AM", "vehiclestyle": "Euro", "description": "Theodore, Calwell, Richardson, Chisholm, Erindale Interchange, Gilmore, Wanniassa", "address": "27 Marr Street, Pearce", "phone": "(02) 6298 7271", "school_name": "Marist College Canberra", "website": "https://www.transport.act.gov.au/getting-around/getting-to-school", "location": "POINT (149.0882278 -35.35945117)"}, "geometry": {"type": "Point", "coordinates": [149.0882278, -35.35945117]}}, {"type": "Feature", "properties": {"routenumber": 2061, "shift": 2629, "starttime": "3:30:00 PM", "vehiclestyle": "PR 3", "description": "Gordon, Isabella Plains", "address": "34 McBryde Cres, Wanniassa", "phone": "(02) 6231 4177", "school_name": "Trinity Christian School", "website": "https://www.transport.act.gov.au/getting-around/getting-to-school", "location": "POINT (149.0865327 -35.40790103)"}, "geometry": {"type": "Point", "coordinates": [149.0865327, -35.40790103]}}, {"type": "Feature", "properties": {"routenumber": 1056, "shift": 1458, "starttime": "3:45:00 PM", "vehiclestyle": "Euro", "description": "Palmerston, Nicholls, Giralang, Kaleen", "address": "1 College Street, Bruce", "phone": "(02) 6162 6200", "school_name": "Radford College", "website": "https://www.transport.act.gov.au/getting-around/getting-to-school", "location": "POINT (149.0874449 -35.24460475)"}, "geometry": {"type": "Point", "coordinates": [149.0874449, -35.24460475]}}, {"type": "Feature", "properties": {"routenumber": 1039, "shift": 1437, "starttime": "3:09:00 PM", "vehiclestyle": "Euro", "description": "Fraser, Charnwood, via Florey Dr, Latham", "address": "12 Barnard Circ, Florey", "phone": "(02) 6258 1055", "school_name": "St Francis Xavier College", "website": "https://www.transport.act.gov.au/getting-around/getting-to-school", "location": "POINT (149.0411711 -35.22499669)"}, "geometry": {"type": "Point", "coordinates": [149.0411711, -35.22499669]}}, {"type": "Feature", "properties": {"routenumber": 2011, "shift": 2056, "starttime": "7:57:00 AM", "vehiclestyle": "Std", "description": "Woden Interchange, Lyons, Chifley, Pearce, Torrens, Mawson", "address": "7 McMillan Cres, Griffith", "phone": "(02) 6260 9400", "school_name": "St Clare's College", "website": "https://www.transport.act.gov.au/getting-around/getting-to-school", "location": "POINT (149.1464467 -35.32363989)"}, "geometry": {"type": "Point", "coordinates": [149.1464467, -35.32363989]}}, {"type": "Feature", "properties": {"routenumber": 2022, "shift": 2104, "starttime": "3:22:00 PM", "vehiclestyle": "artW", "description": "Woden Interchange", "address": "9 Hobart Avenue, Forrest", "phone": "(02) 6142 1470", "school_name": "Forrest Primary School", "website": "https://www.transport.act.gov.au/getting-around/getting-to-school", "location": "POINT (149.1256831 -35.31446042)"}, "geometry": {"type": "Point", "coordinates": [149.1256831, -35.31446042]}}, {"type": "Feature", "properties": {"routenumber": 2031, "shift": 1405, "starttime": "3:30:00 PM", "vehiclestyle": "Euro", "description": "Mawson, Torrens, Pearce, Chifley, Lyons", "address": "111 Denison Street, Deakin", "phone": "(02) 6142 3888", "school_name": "Alfred Deakin High School", "website": "https://www.transport.act.gov.au/getting-around/getting-to-school", "location": "POINT (149.0943121 -35.32418957)"}, "geometry": {"type": "Point", "coordinates": [149.0943121, -35.32418957]}}, {"type": "Feature", "properties": {"routenumber": 2068, "shift": 2059, "starttime": "8:00:00 AM", "vehiclestyle": "Std", "description": "Calwell, Richardson, Chisholm, Macarthur, Fadden", "address": "161 Wheeler Cres, Wanniassa", "phone": "(02) 6231 4022", "school_name": "St Anthony's Parish Primary School", "website": "https://www.transport.act.gov.au/getting-around/getting-to-school", "location": "POINT (149.0805663 -35.39421182)"}, "geometry": {"type": "Point", "coordinates": [149.0805663, -35.39421182]}}, {"type": "Feature", "properties": {"routenumber": 1040, "shift": 2049, "starttime": "7:50:00 AM", "vehiclestyle": "Euro", "description": "Hawker, Weetangera, Cook, Aranda", "address": "12 Stutchbury Street, Page", "phone": "(02) 6254 2653", "school_name": "St Matthew's Primary School", "website": "https://www.transport.act.gov.au/getting-around/getting-to-school", "location": "POINT (149.0429345 -35.24020178)"}, "geometry": {"type": "Point", "coordinates": [149.0429345, -35.24020178]}}, {"type": "Feature", "properties": {"routenumber": 2016, "shift": 2621, "starttime": "3:30:00 PM", "vehiclestyle": "Std", "description": "Garran, Hughes, Deakin", "address": "24 Grey Street, Deakin", "phone": "(02) 6202 6411", "school_name": "Canberra Girls Grammar Junior School", "website": "https://www.transport.act.gov.au/getting-around/getting-to-school", "location": "POINT (149.1109263 -35.31224635)"}, "geometry": {"type": "Point", "coordinates": [149.1109263, -35.31224635]}}, {"type": "Feature", "properties": {"routenumber": 2056, "shift": 1505, "starttime": "3:14:00 PM", "vehiclestyle": "Euro", "description": "Belconnen Interchanges", "address": "Hickey Court, Weston", "phone": "(02) 6288 4283", "school_name": "Orana Steiner School", "website": "https://www.transport.act.gov.au/getting-around/getting-to-school", "location": "POINT (149.0591861 -35.32701158)"}, "geometry": {"type": "Point", "coordinates": [149.0591861, -35.32701158]}}, {"type": "Feature", "properties": {"routenumber": 2066, "shift": 2057, "starttime": "8:00:00 AM", "vehiclestyle": "Std", "description": "Theodore, Calwell", "address": "12 Mackinnon Street, Wanniassa", "phone": "(02) 6209 0100", "school_name": "St Mary Mackillop College - Junior Campus", "website": "https://www.transport.act.gov.au/getting-around/getting-to-school", "location": "POINT (149.0899328 -35.40541396)"}, "geometry": {"type": "Point", "coordinates": [149.0899328, -35.40541396]}}, {"type": "Feature", "properties": {"routenumber": 2022, "shift": 2320, "starttime": "8:01:00 AM", "vehiclestyle": "Euro", "description": "Woden Interchange", "address": "25 New South Wales Crescent, Barton", "phone": "(02) 6142 3388", "school_name": "Telopea Park School P-6", "website": "https://www.transport.act.gov.au/getting-around/getting-to-school", "location": "POINT (149.133676 -35.31370238)"}, "geometry": {"type": "Point", "coordinates": [149.133676, -35.31370238]}}, {"type": "Feature", "properties": {"routenumber": 2007, "shift": 2007, "starttime": "8:23:00 AM", "vehiclestyle": "PR 3", "description": "Woden Interchange Non Stop", "address": "110 Canberra Avenue, Griffith", "phone": "(02) 6295 3598", "school_name": "St Edmund's College Canberra", "website": "https://www.transport.act.gov.au/getting-around/getting-to-school", "location": "POINT (149.1454991 -35.32276245)"}, "geometry": {"type": "Point", "coordinates": [149.1454991, -35.32276245]}}, {"type": "Feature", "properties": {"routenumber": 2057, "shift": 2431, "starttime": "3:27:00 PM", "vehiclestyle": "Euro", "description": "Woden Interchange, Cooleman Court", "address": "35 Mulley St, Holder", "phone": "(02) 6287 1962", "school_name": "Canberra Montessori School", "website": "https://www.transport.act.gov.au/getting-around/getting-to-school", "location": "POINT (149.0505814 -35.33221873)"}, "geometry": {"type": "Point", "coordinates": [149.0505814, -35.33221873]}}, {"type": "Feature", "properties": {"routenumber": 2057, "shift": 2522, "starttime": "8:10:00 AM", "vehiclestyle": "Std", "description": "Woden Interchange, Cooleman Court", "address": "35 Mulley St, Holder", "phone": "(02) 6287 1962", "school_name": "Canberra Montessori School", "website": "https://www.transport.act.gov.au/getting-around/getting-to-school", "location": "POINT (149.0505814 -35.33221873)"}, "geometry": {"type": "Point", "coordinates": [149.0505814, -35.33221873]}}, {"type": "Feature", "properties": {"routenumber": 1021, "shift": 1109, "starttime": "8:07:00 AM", "vehiclestyle": "IRIS", "description": "Watson, Hackett", "address": "10 Wise Street, Braddon", "phone": "(02) 6243 4100", "school_name": "Merici College", "website": "https://www.transport.act.gov.au/getting-around/getting-to-school", "location": "POINT (149.1367055 -35.26688713)"}, "geometry": {"type": "Point", "coordinates": [149.1367055, -35.26688713]}}, {"type": "Feature", "properties": {"routenumber": 1045, "shift": 1438, "starttime": "3:13:00 PM", "vehiclestyle": "Euro", "description": "Gungahlin Place, Ngunnawal, Casey, Nicholls, Spence, Melba", "address": "15 Conley Drive, Melba", "phone": "(02) 6142 0333", "school_name": "Melba Copland Secondary School 7-10", "website": "https://www.transport.act.gov.au/getting-around/getting-to-school", "location": "POINT (149.0495119 -35.21366394)"}, "geometry": {"type": "Point", "coordinates": [149.0495119, -35.21366394]}}, {"type": "Feature", "properties": {"routenumber": 2079, "shift": 2115, "starttime": "8:30:00 AM", "vehiclestyle": "Std", "description": "Isabella Plains, Calwell", "address": "111 Casey Crescent, Calwell", "phone": "(02) 6142 1930", "school_name": "Calwell High School", "website": "https://www.transport.act.gov.au/getting-around/getting-to-school", "location": "POINT (149.1176089 -35.44087726)"}, "geometry": {"type": "Point", "coordinates": [149.1176089, -35.44087726]}}, {"type": "Feature", "properties": {"routenumber": 2071, "shift": 2440, "starttime": "3:23:00 PM", "vehiclestyle": "Euro", "description": "Chisholm Centre, Chisholm, Gilmore, Richardson", "address": "34 McBryde Cres, Wanniassa", "phone": "(02) 6231 4177", "school_name": "Trinity Christian School", "website": "https://www.transport.act.gov.au/getting-around/getting-to-school", "location": "POINT (149.0865327 -35.40790103)"}, "geometry": {"type": "Point", "coordinates": [149.0865327, -35.40790103]}}, {"type": "Feature", "properties": {"routenumber": 2040, "shift": 2536, "starttime": "7:53:00 AM", "vehiclestyle": "Std", "description": "Duffy, Holder, Cooleman Court", "address": "41 Marr Street, Pearce", "phone": "(02) 6142 0700", "school_name": "Melrose High School", "website": "https://www.transport.act.gov.au/getting-around/getting-to-school", "location": "POINT (149.0885994 -35.36276738)"}, "geometry": {"type": "Point", "coordinates": [149.0885994, -35.36276738]}}, {"type": "Feature", "properties": {"routenumber": 1048, "shift": 1618, "starttime": "3:16:00 PM", "vehiclestyle": "Std", "description": "Kippax, Macgregor, Dunlop, Charnwood, Flynn", "address": "15 Conley Drive, Melba", "phone": "(02) 6142 0333", "school_name": "Melba Copland Secondary School 7-10", "website": "https://www.transport.act.gov.au/getting-around/getting-to-school", "location": "POINT (149.0495119 -35.21366394)"}, "geometry": {"type": "Point", "coordinates": [149.0495119, -35.21366394]}}, {"type": "Feature", "properties": {"routenumber": 1062, "shift": 1002, "starttime": "8:31:00 AM", "vehiclestyle": "PR 3", "description": "Dunlop, Charnwood, Fraser", "address": "95 Bettington Cct, Charnwood", "phone": "(02) 6205 7322", "school_name": "Charnwood-Dunlop School", "website": "https://www.transport.act.gov.au/getting-around/getting-to-school", "location": "POINT (149.0363126 -35.19867811)"}, "geometry": {"type": "Point", "coordinates": [149.0363126, -35.19867811]}}, {"type": "Feature", "properties": {"routenumber": 2061, "shift": 2219, "starttime": "8:03:00 AM", "vehiclestyle": "Euro", "description": "Gordon, Isabella Plains", "address": "161 Wheeler Cres, Wanniassa", "phone": "(02) 6231 4022", "school_name": "St Anthony's Parish Primary School", "website": "https://www.transport.act.gov.au/getting-around/getting-to-school", "location": "POINT (149.0805663 -35.39421182)"}, "geometry": {"type": "Point", "coordinates": [149.0805663, -35.39421182]}}, {"type": "Feature", "properties": {"routenumber": 2003, "shift": 2048, "starttime": "7:30:00 AM", "vehiclestyle": "Std", "description": "Gordon, Banks, Conder, Lanyon Marketplace, Isabella Plains, Chisholm", "address": "7 McMillan Cres, Griffith", "phone": "(02) 6260 9400", "school_name": "St Clare's College", "website": "https://www.transport.act.gov.au/getting-around/getting-to-school", "location": "POINT (149.1464467 -35.32363989)"}, "geometry": {"type": "Point", "coordinates": [149.1464467, -35.32363989]}}, {"type": "Feature", "properties": {"routenumber": 1019, "shift": 1545, "starttime": "7:40:00 AM", "vehiclestyle": "IRIS", "description": "Nicholls", "address": "121 Cowper Street, Dickson", "phone": "(02) 6245 6300", "school_name": "Daramalan College", "website": "https://www.transport.act.gov.au/getting-around/getting-to-school", "location": "POINT (149.1389186 -35.25300846)"}, "geometry": {"type": "Point", "coordinates": [149.1389186, -35.25300846]}}, {"type": "Feature", "properties": {"routenumber": 2062, "shift": 2542, "starttime": "8:00:00 AM", "vehiclestyle": "Std", "description": "Kambah East, Gleneagles", "address": "161 Wheeler Cres, Wanniassa", "phone": "(02) 6231 4022", "school_name": "St Anthony's Parish Primary School", "website": "https://www.transport.act.gov.au/getting-around/getting-to-school", "location": "POINT (149.0805663 -35.39421182)"}, "geometry": {"type": "Point", "coordinates": [149.0805663, -35.39421182]}}, {"type": "Feature", "properties": {"routenumber": 1013, "shift": 1528, "starttime": "8:10:00 AM", "vehiclestyle": "PR 3", "description": "Palmerston, Crace", "address": "26 Kelleway Ave, Nicholls", "phone": "(02) 6241 8640", "school_name": "Holy Spirit Primary School", "website": "https://www.transport.act.gov.au/getting-around/getting-to-school", "location": "POINT (149.1006741 -35.18067465)"}, "geometry": {"type": "Point", "coordinates": [149.1006741, -35.18067465]}}, {"type": "Feature", "properties": {"routenumber": 2024, "shift": 2016, "starttime": "8:12:00 AM", "vehiclestyle": "Std", "description": "The Causeway, Symonston, Narrabundah, Red Hill, Griffith, Manuka", "address": "25 New South Wales Crescent, Barton", "phone": "(02) 6142 3388", "school_name": "Telopea Park School P-6", "website": "https://www.transport.act.gov.au/getting-around/getting-to-school", "location": "POINT (149.133676 -35.31370238)"}, "geometry": {"type": "Point", "coordinates": [149.133676, -35.31370238]}}, {"type": "Feature", "properties": {"routenumber": 2026, "shift": 2615, "starttime": "3:33:00 PM", "vehiclestyle": "PR 3", "description": "City Interchange, Russell", "address": "25 New South Wales Crescent, Barton", "phone": "(02) 6142 3388", "school_name": "Telopea Park School P-6", "website": "https://www.transport.act.gov.au/getting-around/getting-to-school", "location": "POINT (149.133676 -35.31370238)"}, "geometry": {"type": "Point", "coordinates": [149.133676, -35.31370238]}}, {"type": "Feature", "properties": {"routenumber": 2035, "shift": 2211, "starttime": "3:17:00 PM", "vehiclestyle": "Euro", "description": "Gleneagles, Kambah", "address": "41 Marr Street, Pearce", "phone": "(02) 6142 0700", "school_name": "Melrose High School", "website": "https://www.transport.act.gov.au/getting-around/getting-to-school", "location": "POINT (149.0885994 -35.36276738)"}, "geometry": {"type": "Point", "coordinates": [149.0885994, -35.36276738]}}, {"type": "Feature", "properties": {"routenumber": 2064, "shift": 2404, "starttime": "3:32:00 PM", "vehiclestyle": "artW", "description": "Banks, Lanyon Marketplace, Conder", "address": "90 Ellerston Ave, Isabella Plains", "phone": "(02) 6209 0100", "school_name": "St Mary Mackillop College - Senior Campus", "website": "https://www.transport.act.gov.au/getting-around/getting-to-school", "location": "POINT (149.0931127 -35.42505875)"}, "geometry": {"type": "Point", "coordinates": [149.0931127, -35.42505875]}}, {"type": "Feature", "properties": {"routenumber": 1018, "shift": 1547, "starttime": "7:46:00 AM", "vehiclestyle": "Std", "description": "Crace, Giralang, Kaleen", "address": "73 Davenport St, Dickson", "phone": "(02) 6247 7151", "school_name": "Emmaus Christian School", "website": "https://www.transport.act.gov.au/getting-around/getting-to-school", "location": "POINT (149.1428789 -35.25344606)"}, "geometry": {"type": "Point", "coordinates": [149.1428789, -35.25344606]}}, {"type": "Feature", "properties": {"routenumber": 1013, "shift": 1414, "starttime": "3:13:00 PM", "vehiclestyle": "Euro", "description": "Palmerston, Crace", "address": "130 Kelleway Avenue, Nicholls", "phone": "(02) 6142 1300", "school_name": "Gold Creek 7-10", "website": "https://www.transport.act.gov.au/getting-around/getting-to-school", "location": "POINT (149.0937054 -35.17975595)"}, "geometry": {"type": "Point", "coordinates": [149.0937054, -35.17975595]}}, {"type": "Feature", "properties": {"routenumber": 2017, "shift": 2628, "starttime": "3:40:00 PM", "vehiclestyle": "PR 3", "description": "Mawson, Farrer, Isaacs, O'Malley", "address": "40 Monaro Cres, Red Hill", "phone": "(02) 6260 9700", "school_name": "Canberra Grammar School", "website": "https://www.transport.act.gov.au/getting-around/getting-to-school", "location": "POINT (149.1278506 -35.33109178)"}, "geometry": {"type": "Point", "coordinates": [149.1278506, -35.33109178]}}, {"type": "Feature", "properties": {"routenumber": 2060, "shift": 2537, "starttime": "7:52:00 AM", "vehiclestyle": "Std", "description": "Lanyon Marketplace, Conder, Banks", "address": "34 McBryde Cres, Wanniassa", "phone": "(02) 6231 4177", "school_name": "Trinity Christian School", "website": "https://www.transport.act.gov.au/getting-around/getting-to-school", "location": "POINT (149.0865327 -35.40790103)"}, "geometry": {"type": "Point", "coordinates": [149.0865327, -35.40790103]}}, {"type": "Feature", "properties": {"routenumber": 1020, "shift": 1626, "starttime": "3:31:00 PM", "vehiclestyle": "PR 3", "description": "Gungahlin Place, Franklin, Harrison", "address": "73 Davenport St, Dickson", "phone": "(02) 6247 7151", "school_name": "Emmaus Christian School", "website": "https://www.transport.act.gov.au/getting-around/getting-to-school", "location": "POINT (149.1428789 -35.25344606)"}, "geometry": {"type": "Point", "coordinates": [149.1428789, -35.25344606]}}, {"type": "Feature", "properties": {"routenumber": 1010, "shift": 1449, "starttime": "3:30:00 PM", "vehiclestyle": "Euro", "description": "Gungahlin Place Bus Station, Amaroo, Bonner, Forde", "address": "4 The Valley Avenue, Gungahlin", "phone": "(02) 6255 7700", "school_name": "Burgmann Anglican School Valley Campus", "website": "https://www.transport.act.gov.au/getting-around/getting-to-school", "location": "POINT (149.1236662 -35.18784524)"}, "geometry": {"type": "Point", "coordinates": [149.1236662, -35.18784524]}}, {"type": "Feature", "properties": {"routenumber": 2002, "shift": 2438, "starttime": "3:41:00 PM", "vehiclestyle": "Euro", "description": "Tuggeranong Interchange, Erindale Interchange, Fadden, Macarthur", "address": "110 Canberra Avenue, Griffith", "phone": "(02) 6295 3598", "school_name": "St Edmund's College Canberra", "website": "https://www.transport.act.gov.au/getting-around/getting-to-school", "location": "POINT (149.1454991 -35.32276245)"}, "geometry": {"type": "Point", "coordinates": [149.1454991, -35.32276245]}}, {"type": "Feature", "properties": {"routenumber": 2054, "shift": 1427, "starttime": "3:10:00 PM", "vehiclestyle": "Euro", "description": "Denman Prospect, Wright, Coombs, Duffy, Rivett, Stirling", "address": "220 Badimara Street, Waramanga", "phone": "(02) 6142 3444", "school_name": "Mount Stromlo High School", "website": "https://www.transport.act.gov.au/getting-around/getting-to-school", "location": "POINT (149.0544905 -35.35492031)"}, "geometry": {"type": "Point", "coordinates": [149.0544905, -35.35492031]}}, {"type": "Feature", "properties": {"routenumber": 2079, "shift": 2404, "starttime": "3:06:00 PM", "vehiclestyle": "artW", "description": "Isabella Plains, Calwell", "address": "120 Casey Cres, Calwell", "phone": "(02) 6292 4500", "school_name": "St Francis Of Assisi Primary School", "website": "https://www.transport.act.gov.au/getting-around/getting-to-school", "location": "POINT (149.1185932 -35.44184375)"}, "geometry": {"type": "Point", "coordinates": [149.1185932, -35.44184375]}}, {"type": "Feature", "properties": {"routenumber": 1038, "shift": 1624, "starttime": "3:15:00 PM", "vehiclestyle": "PR 3", "description": "Fraser West, Dunlop, Macgregor", "address": "12 Barnard Circ, Florey", "phone": "(02) 6258 1055", "school_name": "St Francis Xavier College", "website": "https://www.transport.act.gov.au/getting-around/getting-to-school", "location": "POINT (149.0411711 -35.22499669)"}, "geometry": {"type": "Point", "coordinates": [149.0411711, -35.22499669]}}, {"type": "Feature", "properties": {"routenumber": 1041, "shift": 1401, "starttime": "3:20:00 PM", "vehiclestyle": "Euro", "description": "Kippax, Holt, Higgins", "address": "38 Pawsey Circ, Florey", "phone": "(02) 6258 3592", "school_name": "St John The Apostle Primary School", "website": "https://www.transport.act.gov.au/getting-around/getting-to-school", "location": "POINT (149.0417248 -35.22679501)"}, "geometry": {"type": "Point", "coordinates": [149.0417248, -35.22679501]}}, {"type": "Feature", "properties": {"routenumber": 2041, "shift": 2063, "starttime": "8:04:00 AM", "vehiclestyle": "Std", "description": "Tuggeranong Interchange Non Stop", "address": "41 Marr Street, Pearce", "phone": "(02) 6142 0700", "school_name": "Melrose High School", "website": "https://www.transport.act.gov.au/getting-around/getting-to-school", "location": "POINT (149.0885994 -35.36276738)"}, "geometry": {"type": "Point", "coordinates": [149.0885994, -35.36276738]}}, {"type": "Feature", "properties": {"routenumber": 2044, "shift": 2507, "starttime": "3:23:00 PM", "vehiclestyle": "Euro", "description": "Cooleman Court, Weston, Lyons, Woden Interchange", "address": "41 Marr Street, Pearce", "phone": "(02) 6142 0700", "school_name": "Melrose High School", "website": "https://www.transport.act.gov.au/getting-around/getting-to-school", "location": "POINT (149.0885994 -35.36276738)"}, "geometry": {"type": "Point", "coordinates": [149.0885994, -35.36276738]}}, {"type": "Feature", "properties": {"routenumber": 2005, "shift": 2430, "starttime": "3:33:00 PM", "vehiclestyle": "Euro", "description": "Duffy, Holder", "address": "110 Canberra Avenue, Griffith", "phone": "(02) 6295 3598", "school_name": "St Edmund's College Canberra", "website": "https://www.transport.act.gov.au/getting-around/getting-to-school", "location": "POINT (149.1454991 -35.32276245)"}, "geometry": {"type": "Point", "coordinates": [149.1454991, -35.32276245]}}, {"type": "Feature", "properties": {"routenumber": 2069, "shift": 2348, "starttime": "3:34:00 PM", "vehiclestyle": "artW", "description": "Calwell, Monash, Gowrie", "address": "34 McBryde Cres, Wanniassa", "phone": "(02) 6231 4177", "school_name": "Trinity Christian School", "website": "https://www.transport.act.gov.au/getting-around/getting-to-school", "location": "POINT (149.0865327 -35.40790103)"}, "geometry": {"type": "Point", "coordinates": [149.0865327, -35.40790103]}}, {"type": "Feature", "properties": {"routenumber": 1050, "shift": 1416, "starttime": "2:58:00 PM", "vehiclestyle": "Euro", "description": "Belconnen Interchanges Non Stop", "address": "111 Murranji Street, Hawker", "phone": "(02) 6142 1698", "school_name": "Belconnen High School", "website": "https://www.transport.act.gov.au/getting-around/getting-to-school", "location": "POINT (149.039008 -35.24739818)"}, "geometry": {"type": "Point", "coordinates": [149.039008, -35.24739818]}}, {"type": "Feature", "properties": {"routenumber": 2004, "shift": 2104, "starttime": "7:35:00 AM", "vehiclestyle": "Std", "description": "Theodore, Calwell, Richardson, Chisholm", "address": "110 Canberra Avenue, Griffith", "phone": "(02) 6295 3598", "school_name": "St Edmund's College Canberra", "website": "https://www.transport.act.gov.au/getting-around/getting-to-school", "location": "POINT (149.1454991 -35.32276245)"}, "geometry": {"type": "Point", "coordinates": [149.1454991, -35.32276245]}}, {"type": "Feature", "properties": {"routenumber": 1012, "shift": 1614, "starttime": "3:21:00 PM", "vehiclestyle": "artW", "description": "Gungahlin Place, Ngunnawal, Moncrieff", "address": "30 Kelleway Avenue, Nicholls", "phone": "(02) 6142 1340", "school_name": "Gold Creek P-6", "website": "https://www.transport.act.gov.au/getting-around/getting-to-school", "location": "POINT (149.1006905 -35.18068628)"}, "geometry": {"type": "Point", "coordinates": [149.1006905, -35.18068628]}}, {"type": "Feature", "properties": {"routenumber": 2062, "shift": 2444, "starttime": "3:25:00 PM", "vehiclestyle": "Euro", "description": "Kambah East, Gleneagles", "address": "12 Mackinnon Street, Wanniassa", "phone": "(02) 6209 0100", "school_name": "St Mary Mackillop College - Junior Campus", "website": "https://www.transport.act.gov.au/getting-around/getting-to-school", "location": "POINT (149.0899328 -35.40541396)"}, "geometry": {"type": "Point", "coordinates": [149.0899328, -35.40541396]}}, {"type": "Feature", "properties": {"routenumber": 1019, "shift": 1406, "starttime": "3:35:00 PM", "vehiclestyle": "Euro", "description": "Nicholls", "address": "121 Cowper Street, Dickson", "phone": "(02) 6245 6300", "school_name": "Daramalan College", "website": "https://www.transport.act.gov.au/getting-around/getting-to-school", "location": "POINT (149.1389186 -35.25300846)"}, "geometry": {"type": "Point", "coordinates": [149.1389186, -35.25300846]}}, {"type": "Feature", "properties": {"routenumber": 1031, "shift": 1354, "starttime": "3:10:00 PM", "vehiclestyle": "Euro", "description": "Watson, Downer, Dickson, Ainslie, Campbell", "address": "25 Chauvel Street, Campbell", "phone": "(02) 6142 3580", "school_name": "Campbell Primary School", "website": "https://www.transport.act.gov.au/getting-around/getting-to-school", "location": "POINT (149.1560114 -35.29012735)"}, "geometry": {"type": "Point", "coordinates": [149.1560114, -35.29012735]}}, {"type": "Feature", "properties": {"routenumber": 2023, "shift": 1511, "starttime": "3:25:00 PM", "vehiclestyle": "Euro", "description": "Narrabundah, Griffith, Manuka", "address": "25 New South Wales Crescent, Barton", "phone": "(02) 6142 3388", "school_name": "Telopea Park School P-6", "website": "https://www.transport.act.gov.au/getting-around/getting-to-school", "location": "POINT (149.133676 -35.31370238)"}, "geometry": {"type": "Point", "coordinates": [149.133676, -35.31370238]}}, {"type": "Feature", "properties": {"routenumber": 2062, "shift": 2542, "starttime": "8:00:00 AM", "vehiclestyle": "Std", "description": "Kambah East, Gleneagles", "address": "34 McBryde Cres, Wanniassa", "phone": "(02) 6231 4177", "school_name": "Trinity Christian School", "website": "https://www.transport.act.gov.au/getting-around/getting-to-school", "location": "POINT (149.0865327 -35.40790103)"}, "geometry": {"type": "Point", "coordinates": [149.0865327, -35.40790103]}}, {"type": "Feature", "properties": {"routenumber": 2036, "shift": 2403, "starttime": "3:15:00 PM", "vehiclestyle": "Euro", "description": "Kambah Only. Not Gleneagles", "address": "41 Marr Street, Pearce", "phone": "(02) 6142 0700", "school_name": "Melrose High School", "website": "https://www.transport.act.gov.au/getting-around/getting-to-school", "location": "POINT (149.0885994 -35.36276738)"}, "geometry": {"type": "Point", "coordinates": [149.0885994, -35.36276738]}}, {"type": "Feature", "properties": {"routenumber": 1048, "shift": 1326, "starttime": "7:59:00 AM", "vehiclestyle": "Euro", "description": "Kippax, Macgregor, Dunlop, Charnwood, Flynn", "address": "15 Conley Drive, Melba", "phone": "(02) 6142 0333", "school_name": "Melba Copland Secondary School 7-10", "website": "https://www.transport.act.gov.au/getting-around/getting-to-school", "location": "POINT (149.0495119 -35.21366394)"}, "geometry": {"type": "Point", "coordinates": [149.0495119, -35.21366394]}}, {"type": "Feature", "properties": {"routenumber": 2014, "shift": 1309, "starttime": "8:02:00 AM", "vehiclestyle": "Std", "description": "Woden Interchange Non Stop", "address": "40 Monaro Cres, Red Hill", "phone": "(02) 6260 9700", "school_name": "Canberra Grammar School", "website": "https://www.transport.act.gov.au/getting-around/getting-to-school", "location": "POINT (149.1278506 -35.33109178)"}, "geometry": {"type": "Point", "coordinates": [149.1278506, -35.33109178]}}, {"type": "Feature", "properties": {"routenumber": 2024, "shift": 2356, "starttime": "3:20:00 PM", "vehiclestyle": "Std", "description": "The Causeway, Symonston, Narrabundah, Red Hill, Griffith, Manuka", "address": "9 Hobart Avenue, Forrest", "phone": "(02) 6142 1470", "school_name": "Forrest Primary School", "website": "https://www.transport.act.gov.au/getting-around/getting-to-school", "location": "POINT (149.1256831 -35.31446042)"}, "geometry": {"type": "Point", "coordinates": [149.1256831, -35.31446042]}}, {"type": "Feature", "properties": {"routenumber": 2067, "shift": 2635, "starttime": "3:33:00 PM", "vehiclestyle": "Euro", "description": "Bonython, Oxley", "address": "34 McBryde Cres, Wanniassa", "phone": "(02) 6231 4177", "school_name": "Trinity Christian School", "website": "https://www.transport.act.gov.au/getting-around/getting-to-school", "location": "POINT (149.0865327 -35.40790103)"}, "geometry": {"type": "Point", "coordinates": [149.0865327, -35.40790103]}}, {"type": "Feature", "properties": {"routenumber": 1021, "shift": 1454, "starttime": "3:35:00 PM", "vehiclestyle": "Euro", "description": "Watson, Hackett", "address": "121 Cowper Street, Dickson", "phone": "(02) 6245 6300", "school_name": "Daramalan College", "website": "https://www.transport.act.gov.au/getting-around/getting-to-school", "location": "POINT (149.1389186 -35.25300846)"}, "geometry": {"type": "Point", "coordinates": [149.1389186, -35.25300846]}}, {"type": "Feature", "properties": {"routenumber": 2035, "shift": 2539, "starttime": "7:44:00 AM", "vehiclestyle": "Std", "description": "Gleneagles, Kambah", "address": "141 O'Halloran Circuit, Kambah", "phone": "(02) 6142 0900", "school_name": "Namadgi School P-6", "website": "https://www.transport.act.gov.au/getting-around/getting-to-school", "location": "POINT (149.067359 -35.39250397)"}, "geometry": {"type": "Point", "coordinates": [149.067359, -35.39250397]}}, {"type": "Feature", "properties": {"routenumber": 1027, "shift": 1320, "starttime": "7:58:00 AM", "vehiclestyle": "Euro", "description": "Franklin, Harrison, Gungahlin Place", "address": "136 Brigalow Street, Lyneham", "phone": "(02) 6247 4644", "school_name": "Brindabella Christian College Lyneham Campus", "website": "https://www.transport.act.gov.au/getting-around/getting-to-school", "location": "POINT (149.1275767 -35.24894892)"}, "geometry": {"type": "Point", "coordinates": [149.1275767, -35.24894892]}}, {"type": "Feature", "properties": {"routenumber": 2018, "shift": 2201, "starttime": "7:50:00 AM", "vehiclestyle": "Euro", "description": "Curtin, Yarralumla, Deakin", "address": "15 Alexander Street, 18 Golden Grove, Red Hill", "phone": "(02) 6260 9600", "school_name": "Canberra Grammar Junior School", "website": "https://www.transport.act.gov.au/getting-around/getting-to-school", "location": "POINT (149.124805 -35.33241923)"}, "geometry": {"type": "Point", "coordinates": [149.124805, -35.33241923]}}, {"type": "Feature", "properties": {"routenumber": 1015, "shift": 1034, "starttime": "8:19:00 AM", "vehiclestyle": "PR 3", "description": "Forde, Throsby", "address": "20 Wimmera St, Harrison", "phone": "(02) 6142 2200", "school_name": "Harrison School P-6", "website": "https://www.transport.act.gov.au/getting-around/getting-to-school", "location": "POINT (149.1515231 -35.19919817)"}, "geometry": {"type": "Point", "coordinates": [149.1515231, -35.19919817]}}, {"type": "Feature", "properties": {"routenumber": 2010, "shift": 2614, "starttime": "3:32:00 PM", "vehiclestyle": "Std", "description": "Mawson, Farrer, Isaacs, O'Malley, Red Hill", "address": "110 Canberra Avenue, Griffith", "phone": "(02) 6295 3598", "school_name": "St Edmund's College Canberra", "website": "https://www.transport.act.gov.au/getting-around/getting-to-school", "location": "POINT (149.1454991 -35.32276245)"}, "geometry": {"type": "Point", "coordinates": [149.1454991, -35.32276245]}}, {"type": "Feature", "properties": {"routenumber": 2072, "shift": 2314, "starttime": "7:50:00 AM", "vehiclestyle": "Std", "description": "Duffy, Holder, Cooleman Court via Namatjira Dr", "address": "34 McBryde Cres, Wanniassa", "phone": "(02) 6231 4177", "school_name": "Trinity Christian School", "website": "https://www.transport.act.gov.au/getting-around/getting-to-school", "location": "POINT (149.0865327 -35.40790103)"}, "geometry": {"type": "Point", "coordinates": [149.0865327, -35.40790103]}}, {"type": "Feature", "properties": {"routenumber": 2074, "shift": 2449, "starttime": "3:35:00 PM", "vehiclestyle": "Euro", "description": "Tuggeranong Interchange, Monash, Gowrie, Fadden, Erindale Interchange, Wanniassa", "address": "184 Wheeler Cres, Wanniassa", "phone": "(02) 6142 1870", "school_name": "Wanniassa School 7-10", "website": "https://www.transport.act.gov.au/getting-around/getting-to-school", "location": "POINT (149.0853008 -35.39471089)"}, "geometry": {"type": "Point", "coordinates": [149.0853008, -35.39471089]}}, {"type": "Feature", "properties": {"routenumber": 1054, "shift": 1567, "starttime": "8:17:00 AM", "vehiclestyle": "Std", "description": "Belconnen Interchanges Non Stop", "address": "4 Bindubi Street, Macquarie", "phone": "(02) 6142 0800", "school_name": "Canberra High School", "website": "https://www.transport.act.gov.au/getting-around/getting-to-school", "location": "POINT (149.0746957 -35.25166936)"}, "geometry": {"type": "Point", "coordinates": [149.0746957, -35.25166936]}}, {"type": "Feature", "properties": {"routenumber": 2001, "shift": 2217, "starttime": "3:32:00 PM", "vehiclestyle": "Std", "description": "Kambah, Gleneagles, Woden Interchange", "address": "7 McMillan Cres, Griffith", "phone": "(02) 6260 9400", "school_name": "St Clare's College", "website": "https://www.transport.act.gov.au/getting-around/getting-to-school", "location": "POINT (149.1464467 -35.32363989)"}, "geometry": {"type": "Point", "coordinates": [149.1464467, -35.32363989]}}, {"type": "Feature", "properties": {"routenumber": 2066, "shift": 2636, "starttime": "3:34:00 PM", "vehiclestyle": "Euro", "description": "Theodore, Calwell", "address": "12 Mackinnon Street, Wanniassa", "phone": "(02) 6209 0100", "school_name": "St Mary Mackillop College - Junior Campus", "website": "https://www.transport.act.gov.au/getting-around/getting-to-school", "location": "POINT (149.0899328 -35.40541396)"}, "geometry": {"type": "Point", "coordinates": [149.0899328, -35.40541396]}}, {"type": "Feature", "properties": {"routenumber": 2035, "shift": 2211, "starttime": "3:17:00 PM", "vehiclestyle": "Euro", "description": "Gleneagles, Kambah", "address": "27 Marr Street, Pearce", "phone": "(02) 6298 7271", "school_name": "Marist College Canberra", "website": "https://www.transport.act.gov.au/getting-around/getting-to-school", "location": "POINT (149.0882278 -35.35945117)"}, "geometry": {"type": "Point", "coordinates": [149.0882278, -35.35945117]}}, {"type": "Feature", "properties": {"routenumber": 2056, "shift": 1207, "starttime": "7:57:00 AM", "vehiclestyle": "Euro", "description": "Belconnen Interchanges", "address": "49 Mulley St, Holder", "phone": "(02) 6288 7688", "school_name": "St Jude's Primary School", "website": "https://www.transport.act.gov.au/getting-around/getting-to-school", "location": "POINT (149.0499123 -35.33419454)"}, "geometry": {"type": "Point", "coordinates": [149.0499123, -35.33419454]}}, {"type": "Feature", "properties": {"routenumber": 2009, "shift": 2613, "starttime": "3:32:00 PM", "vehiclestyle": "Std", "description": "Curtin, Hughes, Garran", "address": "7 McMillan Cres, Griffith", "phone": "(02) 6260 9400", "school_name": "St Clare's College", "website": "https://www.transport.act.gov.au/getting-around/getting-to-school", "location": "POINT (149.1464467 -35.32363989)"}, "geometry": {"type": "Point", "coordinates": [149.1464467, -35.32363989]}}, {"type": "Feature", "properties": {"routenumber": 2017, "shift": 2107, "starttime": "7:50:00 AM", "vehiclestyle": "Std", "description": "Mawson, Farrer, Isaacs, O'Malley", "address": "48 Melbourne Avenue, 2 Gawler Crescent, Deakin", "phone": "(02) 6202 6400", "school_name": "Canberra Girls Grammar School", "website": "https://www.transport.act.gov.au/getting-around/getting-to-school", "location": "POINT (149.1158606 -35.31701448)"}, "geometry": {"type": "Point", "coordinates": [149.1158606, -35.31701448]}}, {"type": "Feature", "properties": {"routenumber": 2074, "shift": 2332, "starttime": "8:00:00 AM", "vehiclestyle": "Std", "description": "Tuggeranong Interchange, Monash, Gowrie, Fadden, Erindale Interchange, Wanniassa", "address": "14 Castleton Crescent, 1 Jeffries Street, Gowrie", "phone": "(02) 6292 1222", "school_name": "Holy Family Parish Primary School", "website": "https://www.transport.act.gov.au/getting-around/getting-to-school", "location": "POINT (149.109718 -35.41358592)"}, "geometry": {"type": "Point", "coordinates": [149.109718, -35.41358592]}}, {"type": "Feature", "properties": {"routenumber": 1035, "shift": 1435, "starttime": "3:21:00 PM", "vehiclestyle": "Euro", "description": "Dickson, Downer, Watson, Hackett, Ainslie", "address": "114 Maitland St, Hackett", "phone": "(02) 6230 6776", "school_name": "Blue Gum Community School", "website": "https://www.transport.act.gov.au/getting-around/getting-to-school", "location": "POINT (149.1627307 -35.25017112)"}, "geometry": {"type": "Point", "coordinates": [149.1627307, -35.25017112]}}, {"type": "Feature", "properties": {"routenumber": 2015, "shift": 1354, "starttime": "8:05:00 AM", "vehiclestyle": "Euro", "description": "City Interchange Non Stop", "address": "15 Alexander Street, 18 Golden Grove, Red Hill", "phone": "(02) 6260 9600", "school_name": "Canberra Grammar Junior School", "website": "https://www.transport.act.gov.au/getting-around/getting-to-school", "location": "POINT (149.124805 -35.33241923)"}, "geometry": {"type": "Point", "coordinates": [149.124805, -35.33241923]}}, {"type": "Feature", "properties": {"routenumber": 1040, "shift": 1446, "starttime": "3:19:00 PM", "vehiclestyle": "Euro", "description": "Hawker, Weetangera, Cook, Aranda", "address": "12 Barnard Circ, Florey", "phone": "(02) 6258 1055", "school_name": "St Francis Xavier College", "website": "https://www.transport.act.gov.au/getting-around/getting-to-school", "location": "POINT (149.0411711 -35.22499669)"}, "geometry": {"type": "Point", "coordinates": [149.0411711, -35.22499669]}}, {"type": "Feature", "properties": {"routenumber": 2042, "shift": 2005, "starttime": "7:34:00 AM", "vehiclestyle": "PR 3", "description": "Lanyon Marketplace, Gordon, Banks, Conder", "address": "41 Marr Street, Pearce", "phone": "(02) 6142 0700", "school_name": "Melrose High School", "website": "https://www.transport.act.gov.au/getting-around/getting-to-school", "location": "POINT (149.0885994 -35.36276738)"}, "geometry": {"type": "Point", "coordinates": [149.0885994, -35.36276738]}}, {"type": "Feature", "properties": {"routenumber": 1028, "shift": 1440, "starttime": "3:20:00 PM", "vehiclestyle": "Euro", "description": "Palmerston, Crace, Giralang, Kaleen", "address": "136 Brigalow Street, Lyneham", "phone": "(02) 6247 4644", "school_name": "Brindabella Christian College Lyneham Campus", "website": "https://www.transport.act.gov.au/getting-around/getting-to-school", "location": "POINT (149.1275767 -35.24894892)"}, "geometry": {"type": "Point", "coordinates": [149.1275767, -35.24894892]}}, {"type": "Feature", "properties": {"routenumber": 2043, "shift": 2355, "starttime": "3:20:00 PM", "vehiclestyle": "Euro", "description": "Theodore, Calwell, Richardson, Chisholm, Erindale Interchange, Gilmore, Wanniassa", "address": "27 Marr Street, Pearce", "phone": "(02) 6298 7271", "school_name": "Marist College Canberra", "website": "https://www.transport.act.gov.au/getting-around/getting-to-school", "location": "POINT (149.0882278 -35.35945117)"}, "geometry": {"type": "Point", "coordinates": [149.0882278, -35.35945117]}}, {"type": "Feature", "properties": {"routenumber": 2073, "shift": 2532, "starttime": "7:43:00 AM", "vehiclestyle": "Std", "description": "Waramanga, Fisher, Stirling, Rivett, Chapman", "address": "90 Ellerston Ave, Isabella Plains", "phone": "(02) 6209 0100", "school_name": "St Mary Mackillop College - Senior Campus", "website": "https://www.transport.act.gov.au/getting-around/getting-to-school", "location": "POINT (149.0931127 -35.42505875)"}, "geometry": {"type": "Point", "coordinates": [149.0931127, -35.42505875]}}, {"type": "Feature", "properties": {"routenumber": 1046, "shift": 1403, "starttime": "3:17:00 PM", "vehiclestyle": "Euro", "description": "Kaleen, Giralang, Mckellar, Evatt, Melba", "address": "15 Conley Drive, Melba", "phone": "(02) 6142 0333", "school_name": "Melba Copland Secondary School 7-10", "website": "https://www.transport.act.gov.au/getting-around/getting-to-school", "location": "POINT (149.0495119 -35.21366394)"}, "geometry": {"type": "Point", "coordinates": [149.0495119, -35.21366394]}}, {"type": "Feature", "properties": {"routenumber": 2060, "shift": 2632, "starttime": "3:30:00 PM", "vehiclestyle": "Std", "description": "Lanyon Marketplace, Conder, Banks", "address": "34 McBryde Cres, Wanniassa", "phone": "(02) 6231 4177", "school_name": "Trinity Christian School", "website": "https://www.transport.act.gov.au/getting-around/getting-to-school", "location": "POINT (149.0865327 -35.40790103)"}, "geometry": {"type": "Point", "coordinates": [149.0865327, -35.40790103]}}, {"type": "Feature", "properties": {"routenumber": 2023, "shift": 2062, "starttime": "8:20:00 AM", "vehiclestyle": "Std", "description": "Narrabundah, Griffith, Manuka", "address": "25 New South Wales Crescent, Barton", "phone": "(02) 6142 3388", "school_name": "Telopea Park School 7-10", "website": "https://www.transport.act.gov.au/getting-around/getting-to-school", "location": "POINT (149.1336759 -35.31370184)"}, "geometry": {"type": "Point", "coordinates": [149.1336759, -35.31370184]}}, {"type": "Feature", "properties": {"routenumber": 1022, "shift": 1353, "starttime": "7:10:00 AM", "vehiclestyle": "Euro", "description": "Casey, Ngunnawal, Palmerston", "address": "121 Cowper Street, Dickson", "phone": "(02) 6245 6300", "school_name": "Daramalan College", "website": "https://www.transport.act.gov.au/getting-around/getting-to-school", "location": "POINT (149.1389186 -35.25300846)"}, "geometry": {"type": "Point", "coordinates": [149.1389186, -35.25300846]}}, {"type": "Feature", "properties": {"routenumber": 2014, "shift": 2356, "starttime": "7:55:00 AM", "vehiclestyle": "Std", "description": "Woden Interchange Non Stop", "address": "48 Melbourne Avenue, 2 Gawler Crescent, Deakin", "phone": "(02) 6202 6400", "school_name": "Canberra Girls Grammar School", "website": "https://www.transport.act.gov.au/getting-around/getting-to-school", "location": "POINT (149.1158606 -35.31701448)"}, "geometry": {"type": "Point", "coordinates": [149.1158606, -35.31701448]}}, {"type": "Feature", "properties": {"routenumber": 2025, "shift": 2313, "starttime": "7:59:00 AM", "vehiclestyle": "Std", "description": "Forrest, Deakin, Curtin, Woden Bus Station", "address": "25 New South Wales Crescent, Barton", "phone": "(02) 6142 3388", "school_name": "Telopea Park School 7-10", "website": "https://www.transport.act.gov.au/getting-around/getting-to-school", "location": "POINT (149.1336759 -35.31370184)"}, "geometry": {"type": "Point", "coordinates": [149.1336759, -35.31370184]}}, {"type": "Feature", "properties": {"routenumber": 2068, "shift": 2630, "starttime": "3:30:00 PM", "vehiclestyle": "Euro", "description": "Calwell, Richardson, Chisholm, Macarthur, Fadden", "address": "161 Wheeler Cres, Wanniassa", "phone": "(02) 6231 4022", "school_name": "St Anthony's Parish Primary School", "website": "https://www.transport.act.gov.au/getting-around/getting-to-school", "location": "POINT (149.0805663 -35.39421182)"}, "geometry": {"type": "Point", "coordinates": [149.0805663, -35.39421182]}}, {"type": "Feature", "properties": {"routenumber": 1043, "shift": 1625, "starttime": "3:20:00 PM", "vehiclestyle": "Euro", "description": "Fraser, Flynn", "address": "12 Barnard Circ, Florey", "phone": "(02) 6258 1055", "school_name": "St Francis Xavier College", "website": "https://www.transport.act.gov.au/getting-around/getting-to-school", "location": "POINT (149.0411711 -35.22499669)"}, "geometry": {"type": "Point", "coordinates": [149.0411711, -35.22499669]}}, {"type": "Feature", "properties": {"routenumber": 2060, "shift": 1411, "starttime": "3:22:00 PM", "vehiclestyle": "artW", "description": "Lanyon Marketplace, Conder, Banks", "address": "12 Mackinnon Street, Wanniassa", "phone": "(02) 6209 0100", "school_name": "St Mary Mackillop College - Junior Campus", "website": "https://www.transport.act.gov.au/getting-around/getting-to-school", "location": "POINT (149.0899328 -35.40541396)"}, "geometry": {"type": "Point", "coordinates": [149.0899328, -35.40541396]}}, {"type": "Feature", "properties": {"routenumber": 1029, "shift": 1617, "starttime": "3:21:00 PM", "vehiclestyle": "IRIS", "description": "Belconnen Interchanges", "address": "136 Brigalow Street, Lyneham", "phone": "(02) 6247 4644", "school_name": "Brindabella Christian College Lyneham Campus", "website": "https://www.transport.act.gov.au/getting-around/getting-to-school", "location": "POINT (149.1275767 -35.24894892)"}, "geometry": {"type": "Point", "coordinates": [149.1275767, -35.24894892]}}, {"type": "Feature", "properties": {"routenumber": 1043, "shift": 1625, "starttime": "3:20:00 PM", "vehiclestyle": "Euro", "description": "Fraser, Flynn", "address": "38 Pawsey Circ, Florey", "phone": "(02) 6258 3592", "school_name": "St John The Apostle Primary School", "website": "https://www.transport.act.gov.au/getting-around/getting-to-school", "location": "POINT (149.0417248 -35.22679501)"}, "geometry": {"type": "Point", "coordinates": [149.0417248, -35.22679501]}}, {"type": "Feature", "properties": {"routenumber": 2061, "shift": 2634, "starttime": "3:32:00 PM", "vehiclestyle": "Euro", "description": "Gordon, Isabella Plains", "address": "161 Wheeler Cres, Wanniassa", "phone": "(02) 6231 4022", "school_name": "St Anthony's Parish Primary School", "website": "https://www.transport.act.gov.au/getting-around/getting-to-school", "location": "POINT (149.0805663 -35.39421182)"}, "geometry": {"type": "Point", "coordinates": [149.0805663, -35.39421182]}}, {"type": "Feature", "properties": {"routenumber": 1039, "shift": 1437, "starttime": "3:09:00 PM", "vehiclestyle": "Euro", "description": "Fraser, Charnwood, via Florey Dr, Latham", "address": "38 Pawsey Circ, Florey", "phone": "(02) 6258 3592", "school_name": "St John The Apostle Primary School", "website": "https://www.transport.act.gov.au/getting-around/getting-to-school", "location": "POINT (149.0417248 -35.22679501)"}, "geometry": {"type": "Point", "coordinates": [149.0417248, -35.22679501]}}, {"type": "Feature", "properties": {"routenumber": 2016, "shift": 2113, "starttime": "8:00:00 AM", "vehiclestyle": "Std", "description": "Garran, Hughes, Deakin", "address": "24 Grey Street, Deakin", "phone": "(02) 6202 6411", "school_name": "Canberra Girls Grammar Junior School", "website": "https://www.transport.act.gov.au/getting-around/getting-to-school", "location": "POINT (149.1109263 -35.31224635)"}, "geometry": {"type": "Point", "coordinates": [149.1109263, -35.31224635]}}, {"type": "Feature", "properties": {"routenumber": 2063, "shift": 2358, "starttime": "8:00:00 AM", "vehiclestyle": "Euro", "description": "Kambah West, Gleneagles", "address": "34 McBryde Cres, Wanniassa", "phone": "(02) 6231 4177", "school_name": "Trinity Christian School", "website": "https://www.transport.act.gov.au/getting-around/getting-to-school", "location": "POINT (149.0865327 -35.40790103)"}, "geometry": {"type": "Point", "coordinates": [149.0865327, -35.40790103]}}, {"type": "Feature", "properties": {"routenumber": 2018, "shift": 2624, "starttime": "3:35:00 PM", "vehiclestyle": "Std", "description": "Curtin, Yarralumla, Deakin", "address": "48 Melbourne Avenue, 2 Gawler Crescent, Deakin", "phone": "(02) 6202 6400", "school_name": "Canberra Girls Grammar School", "website": "https://www.transport.act.gov.au/getting-around/getting-to-school", "location": "POINT (149.1158606 -35.31701448)"}, "geometry": {"type": "Point", "coordinates": [149.1158606, -35.31701448]}}, {"type": "Feature", "properties": {"routenumber": 2081, "shift": 2117, "starttime": "8:18:00 AM", "vehiclestyle": "Std", "description": "Erindale Interchange, Fadden, Macarthur, Gilmore, Richardson, Chisholm", "address": "108 Hambidge Cres, Chisholm", "phone": "(02) 6142 3550", "school_name": "Caroline Chisholm School 7-10", "website": "https://www.transport.act.gov.au/getting-around/getting-to-school", "location": "POINT (149.1217966 -35.41801195)"}, "geometry": {"type": "Point", "coordinates": [149.1217966, -35.41801195]}}, {"type": "Feature", "properties": {"routenumber": 2035, "shift": 2051, "starttime": "7:34:00 AM", "vehiclestyle": "Std", "description": "Gleneagles, Kambah", "address": "141 O'Halloran Circuit, Kambah", "phone": "(02) 6142 0900", "school_name": "Namadgi School 7-10", "website": "https://www.transport.act.gov.au/getting-around/getting-to-school", "location": "POINT (149.0673593 -35.39250607)"}, "geometry": {"type": "Point", "coordinates": [149.0673593, -35.39250607]}}, {"type": "Feature", "properties": {"routenumber": 1024, "shift": 1014, "starttime": "8:07:00 AM", "vehiclestyle": "PR 3", "description": "Gungahlin Place, Franklin", "address": "10 Wise Street, Braddon", "phone": "(02) 6243 4100", "school_name": "Merici College", "website": "https://www.transport.act.gov.au/getting-around/getting-to-school", "location": "POINT (149.1367055 -35.26688713)"}, "geometry": {"type": "Point", "coordinates": [149.1367055, -35.26688713]}}, {"type": "Feature", "properties": {"routenumber": 2008, "shift": 2001, "starttime": "7:41:00 AM", "vehiclestyle": "Std", "description": "Tuggeranong Interchange, Oxley, Wanniassa, Erindale Interchange", "address": "7 McMillan Cres, Griffith", "phone": "(02) 6260 9400", "school_name": "St Clare's College", "website": "https://www.transport.act.gov.au/getting-around/getting-to-school", "location": "POINT (149.1464467 -35.32363989)"}, "geometry": {"type": "Point", "coordinates": [149.1464467, -35.32363989]}}, {"type": "Feature", "properties": {"routenumber": 2031, "shift": 2045, "starttime": "8:23:00 AM", "vehiclestyle": "Euro", "description": "Mawson, Torrens, Pearce, Chifley, Lyons", "address": "111 Denison Street, Deakin", "phone": "(02) 6142 3888", "school_name": "Alfred Deakin High School", "website": "https://www.transport.act.gov.au/getting-around/getting-to-school", "location": "POINT (149.0943121 -35.32418957)"}, "geometry": {"type": "Point", "coordinates": [149.0943121, -35.32418957]}}, {"type": "Feature", "properties": {"routenumber": 2024, "shift": 2356, "starttime": "3:20:00 PM", "vehiclestyle": "Std", "description": "The Causeway, Symonston, Narrabundah, Red Hill, Griffith, Manuka", "address": "25 New South Wales Crescent, Barton", "phone": "(02) 6142 3388", "school_name": "Telopea Park School P-6", "website": "https://www.transport.act.gov.au/getting-around/getting-to-school", "location": "POINT (149.133676 -35.31370238)"}, "geometry": {"type": "Point", "coordinates": [149.133676, -35.31370238]}}, {"type": "Feature", "properties": {"routenumber": 2014, "shift": 2214, "starttime": "3:30:00 PM", "vehiclestyle": "Euro", "description": "Woden Interchange Non Stop", "address": "40 Monaro Cres, Red Hill", "phone": "(02) 6260 9700", "school_name": "Canberra Grammar School", "website": "https://www.transport.act.gov.au/getting-around/getting-to-school", "location": "POINT (149.1278506 -35.33109178)"}, "geometry": {"type": "Point", "coordinates": [149.1278506, -35.33109178]}}, {"type": "Feature", "properties": {"routenumber": 2068, "shift": 2630, "starttime": "3:30:00 PM", "vehiclestyle": "Euro", "description": "Calwell, Richardson, Chisholm, Macarthur, Fadden", "address": "34 McBryde Cres, Wanniassa", "phone": "(02) 6231 4177", "school_name": "Trinity Christian School", "website": "https://www.transport.act.gov.au/getting-around/getting-to-school", "location": "POINT (149.0865327 -35.40790103)"}, "geometry": {"type": "Point", "coordinates": [149.0865327, -35.40790103]}}, {"type": "Feature", "properties": {"routenumber": 2016, "shift": 2621, "starttime": "3:30:00 PM", "vehiclestyle": "Std", "description": "Garran, Hughes, Deakin", "address": "48 Melbourne Avenue, 2 Gawler Crescent, Deakin", "phone": "(02) 6202 6400", "school_name": "Canberra Girls Grammar School", "website": "https://www.transport.act.gov.au/getting-around/getting-to-school", "location": "POINT (149.1158606 -35.31701448)"}, "geometry": {"type": "Point", "coordinates": [149.1158606, -35.31701448]}}, {"type": "Feature", "properties": {"routenumber": 1022, "shift": 1353, "starttime": "7:10:00 AM", "vehiclestyle": "Euro", "description": "Casey, Ngunnawal, Palmerston", "address": "10 Wise Street, Braddon", "phone": "(02) 6243 4100", "school_name": "Merici College", "website": "https://www.transport.act.gov.au/getting-around/getting-to-school", "location": "POINT (149.1367055 -35.26688713)"}, "geometry": {"type": "Point", "coordinates": [149.1367055, -35.26688713]}}, {"type": "Feature", "properties": {"routenumber": 2056, "shift": 1505, "starttime": "3:14:00 PM", "vehiclestyle": "Euro", "description": "Belconnen Interchanges", "address": "49 Mulley St, Holder", "phone": "(02) 6288 7688", "school_name": "St Jude's Primary School", "website": "https://www.transport.act.gov.au/getting-around/getting-to-school", "location": "POINT (149.0499123 -35.33419454)"}, "geometry": {"type": "Point", "coordinates": [149.0499123, -35.33419454]}}, {"type": "Feature", "properties": {"routenumber": 1039, "shift": 1437, "starttime": "3:09:00 PM", "vehiclestyle": "Euro", "description": "Fraser, Charnwood, via Florey Dr, Latham", "address": "12 Stutchbury Street, Page", "phone": "(02) 6254 2653", "school_name": "St Matthew's Primary School", "website": "https://www.transport.act.gov.au/getting-around/getting-to-school", "location": "POINT (149.0429345 -35.24020178)"}, "geometry": {"type": "Point", "coordinates": [149.0429345, -35.24020178]}}, {"type": "Feature", "properties": {"routenumber": 2066, "shift": 2057, "starttime": "8:00:00 AM", "vehiclestyle": "Std", "description": "Theodore, Calwell", "address": "161 Wheeler Cres, Wanniassa", "phone": "(02) 6231 4022", "school_name": "St Anthony's Parish Primary School", "website": "https://www.transport.act.gov.au/getting-around/getting-to-school", "location": "POINT (149.0805663 -35.39421182)"}, "geometry": {"type": "Point", "coordinates": [149.0805663, -35.39421182]}}, {"type": "Feature", "properties": {"routenumber": 2022, "shift": 2012, "starttime": "8:06:00 AM", "vehiclestyle": "PR 3", "description": "Woden Interchange", "address": "9 Hobart Avenue, Forrest", "phone": "(02) 6142 1470", "school_name": "Forrest Primary School", "website": "https://www.transport.act.gov.au/getting-around/getting-to-school", "location": "POINT (149.1256831 -35.31446042)"}, "geometry": {"type": "Point", "coordinates": [149.1256831, -35.31446042]}}, {"type": "Feature", "properties": {"routenumber": 1028, "shift": 1440, "starttime": "3:20:00 PM", "vehiclestyle": "Euro", "description": "Palmerston, Crace, Giralang, Kaleen", "address": "68 Brigalow Street, Lyneham", "phone": "(02) 6142 1720", "school_name": "Lyneham Primary School", "website": "https://www.transport.act.gov.au/getting-around/getting-to-school", "location": "POINT (149.1256275 -35.2514168)"}, "geometry": {"type": "Point", "coordinates": [149.1256275, -35.2514168]}}, {"type": "Feature", "properties": {"routenumber": 2007, "shift": 2007, "starttime": "8:23:00 AM", "vehiclestyle": "PR 3", "description": "Woden Interchange Non Stop", "address": "7 McMillan Cres, Griffith", "phone": "(02) 6260 9400", "school_name": "St Clare's College", "website": "https://www.transport.act.gov.au/getting-around/getting-to-school", "location": "POINT (149.1464467 -35.32363989)"}, "geometry": {"type": "Point", "coordinates": [149.1464467, -35.32363989]}}, {"type": "Feature", "properties": {"routenumber": 2057, "shift": 2522, "starttime": "8:10:00 AM", "vehiclestyle": "Std", "description": "Woden Interchange, Cooleman Court", "address": "33 Heysen St, Weston", "phone": "(02) 6288 7358", "school_name": "Islamic School Of Canberra", "website": "https://www.transport.act.gov.au/getting-around/getting-to-school", "location": "POINT (149.0595661 -35.32963618)"}, "geometry": {"type": "Point", "coordinates": [149.0595661, -35.32963618]}}, {"type": "Feature", "properties": {"routenumber": 2011, "shift": 2616, "starttime": "3:32:00 PM", "vehiclestyle": "Std", "description": "Woden Interchange, Lyons, Chifley, Pearce, Torrens, Mawson", "address": "110 Canberra Avenue, Griffith", "phone": "(02) 6295 3598", "school_name": "St Edmund's College Canberra", "website": "https://www.transport.act.gov.au/getting-around/getting-to-school", "location": "POINT (149.1454991 -35.32276245)"}, "geometry": {"type": "Point", "coordinates": [149.1454991, -35.32276245]}}, {"type": "Feature", "properties": {"routenumber": 2047, "shift": 2443, "starttime": "3:30:00 PM", "vehiclestyle": "Euro", "description": "Hughes, Garran", "address": "27 Marr Street, Pearce", "phone": "(02) 6298 7271", "school_name": "Marist College Canberra", "website": "https://www.transport.act.gov.au/getting-around/getting-to-school", "location": "POINT (149.0882278 -35.35945117)"}, "geometry": {"type": "Point", "coordinates": [149.0882278, -35.35945117]}}, {"type": "Feature", "properties": {"routenumber": 1033, "shift": 1520, "starttime": "8:34:00 AM", "vehiclestyle": "Euro", "description": "City Interchange Non Stop", "address": "15 Treloar Crescent, Campbell", "phone": "(02) 6142 3166", "school_name": "Campbell High School", "website": "https://www.transport.act.gov.au/getting-around/getting-to-school", "location": "POINT (149.1477875 -35.27861871)"}, "geometry": {"type": "Point", "coordinates": [149.1477875, -35.27861871]}}, {"type": "Feature", "properties": {"routenumber": 2038, "shift": 2618, "starttime": "3:21:00 PM", "vehiclestyle": "Std", "description": "Woden Interchange Non Stop", "address": "27 Marr Street, Pearce", "phone": "(02) 6298 7271", "school_name": "Marist College Canberra", "website": "https://www.transport.act.gov.au/getting-around/getting-to-school", "location": "POINT (149.0882278 -35.35945117)"}, "geometry": {"type": "Point", "coordinates": [149.0882278, -35.35945117]}}, {"type": "Feature", "properties": {"routenumber": 2026, "shift": 2615, "starttime": "3:33:00 PM", "vehiclestyle": "PR 3", "description": "City Interchange, Russell", "address": "25 New South Wales Crescent, Barton", "phone": "(02) 6142 3388", "school_name": "Telopea Park School 7-10", "website": "https://www.transport.act.gov.au/getting-around/getting-to-school", "location": "POINT (149.1336759 -35.31370184)"}, "geometry": {"type": "Point", "coordinates": [149.1336759, -35.31370184]}}, {"type": "Feature", "properties": {"routenumber": 2018, "shift": 2201, "starttime": "7:50:00 AM", "vehiclestyle": "Euro", "description": "Curtin, Yarralumla, Deakin", "address": "48 Melbourne Avenue, 2 Gawler Crescent, Deakin", "phone": "(02) 6202 6400", "school_name": "Canberra Girls Grammar School", "website": "https://www.transport.act.gov.au/getting-around/getting-to-school", "location": "POINT (149.1158606 -35.31701448)"}, "geometry": {"type": "Point", "coordinates": [149.1158606, -35.31701448]}}, {"type": "Feature", "properties": {"routenumber": 2042, "shift": 2619, "starttime": "3:21:00 PM", "vehiclestyle": "Euro", "description": "Lanyon Marketplace, Gordon, Banks, Conder", "address": "41 Marr Street, Pearce", "phone": "(02) 6142 0700", "school_name": "Melrose High School", "website": "https://www.transport.act.gov.au/getting-around/getting-to-school", "location": "POINT (149.0885994 -35.36276738)"}, "geometry": {"type": "Point", "coordinates": [149.0885994, -35.36276738]}}, {"type": "Feature", "properties": {"routenumber": 1015, "shift": 1034, "starttime": "8:19:00 AM", "vehiclestyle": "PR 3", "description": "Forde, Throsby", "address": "20 Wimmera St, Harrison", "phone": "(02) 6142 2200", "school_name": "Harrison School 7-10", "website": "https://www.transport.act.gov.au/getting-around/getting-to-school", "location": "POINT (149.1515171 -35.19919644)"}, "geometry": {"type": "Point", "coordinates": [149.1515171, -35.19919644]}}, {"type": "Feature", "properties": {"routenumber": 1018, "shift": 1547, "starttime": "7:46:00 AM", "vehiclestyle": "Std", "description": "Crace, Giralang, Kaleen", "address": "10 Wise Street, Braddon", "phone": "(02) 6243 4100", "school_name": "Merici College", "website": "https://www.transport.act.gov.au/getting-around/getting-to-school", "location": "POINT (149.1367055 -35.26688713)"}, "geometry": {"type": "Point", "coordinates": [149.1367055, -35.26688713]}}, {"type": "Feature", "properties": {"routenumber": 1051, "shift": 1430, "starttime": "3:00:00 PM", "vehiclestyle": "Euro", "description": "Florey, Lathem, Higgins, Scullin", "address": "111 Murranji Street, Hawker", "phone": "(02) 6142 1698", "school_name": "Belconnen High School", "website": "https://www.transport.act.gov.au/getting-around/getting-to-school", "location": "POINT (149.039008 -35.24739818)"}, "geometry": {"type": "Point", "coordinates": [149.039008, -35.24739818]}}, {"type": "Feature", "properties": {"routenumber": 2060, "shift": 2054, "starttime": "8:00:00 AM", "vehiclestyle": "Std", "description": "Lanyon Marketplace, Conder", "address": "34 McBryde Cres, Wanniassa", "phone": "(02) 6231 4177", "school_name": "Trinity Christian School", "website": "https://www.transport.act.gov.au/getting-around/getting-to-school", "location": "POINT (149.0865327 -35.40790103)"}, "geometry": {"type": "Point", "coordinates": [149.0865327, -35.40790103]}}, {"type": "Feature", "properties": {"routenumber": 2025, "shift": 1443, "starttime": "3:30:00 PM", "vehiclestyle": "Euro", "description": "Forrest, Deakin, Curtin, Woden Bus Station", "address": "25 New South Wales Crescent, Barton", "phone": "(02) 6142 3388", "school_name": "Telopea Park School P-6", "website": "https://www.transport.act.gov.au/getting-around/getting-to-school", "location": "POINT (149.133676 -35.31370238)"}, "geometry": {"type": "Point", "coordinates": [149.133676, -35.31370238]}}, {"type": "Feature", "properties": {"routenumber": 1023, "shift": 1450, "starttime": "3:31:00 PM", "vehiclestyle": "Euro", "description": "Bonner, Amaroo, Gungahlin", "address": "73 Davenport St, Dickson", "phone": "(02) 6247 7151", "school_name": "Emmaus Christian School", "website": "https://www.transport.act.gov.au/getting-around/getting-to-school", "location": "POINT (149.1428789 -35.25344606)"}, "geometry": {"type": "Point", "coordinates": [149.1428789, -35.25344606]}}, {"type": "Feature", "properties": {"routenumber": 2062, "shift": 2444, "starttime": "3:25:00 PM", "vehiclestyle": "Euro", "description": "Kambah East, Gleneagles", "address": "184 Wheeler Cres, Wanniassa", "phone": "(02) 6142 1870", "school_name": "Wanniassa School 7-10", "website": "https://www.transport.act.gov.au/getting-around/getting-to-school", "location": "POINT (149.0853008 -35.39471089)"}, "geometry": {"type": "Point", "coordinates": [149.0853008, -35.39471089]}}, {"type": "Feature", "properties": {"routenumber": 2004, "shift": 2215, "starttime": "3:30:00 PM", "vehiclestyle": "Euro", "description": "Theodore, Calwell, Richardson, Chisholm", "address": "7 McMillan Cres, Griffith", "phone": "(02) 6260 9400", "school_name": "St Clare's College", "website": "https://www.transport.act.gov.au/getting-around/getting-to-school", "location": "POINT (149.1464467 -35.32363989)"}, "geometry": {"type": "Point", "coordinates": [149.1464467, -35.32363989]}}, {"type": "Feature", "properties": {"routenumber": 2061, "shift": 2219, "starttime": "8:03:00 AM", "vehiclestyle": "Euro", "description": "Gordon, Isabella Plains", "address": "34 McBryde Cres, Wanniassa", "phone": "(02) 6231 4177", "school_name": "Trinity Christian School", "website": "https://www.transport.act.gov.au/getting-around/getting-to-school", "location": "POINT (149.0865327 -35.40790103)"}, "geometry": {"type": "Point", "coordinates": [149.0865327, -35.40790103]}}, {"type": "Feature", "properties": {"routenumber": 2063, "shift": 2358, "starttime": "8:00:00 AM", "vehiclestyle": "Euro", "description": "Kambah West, Gleneagles", "address": "184 Wheeler Cres, Wanniassa", "phone": "(02) 6142 1870", "school_name": "Wanniassa School 7-10", "website": "https://www.transport.act.gov.au/getting-around/getting-to-school", "location": "POINT (149.0853008 -35.39471089)"}, "geometry": {"type": "Point", "coordinates": [149.0853008, -35.39471089]}}, {"type": "Feature", "properties": {"routenumber": 2022, "shift": 2424, "starttime": "3:21:00 PM", "vehiclestyle": "Euro", "description": "Woden Interchange", "address": "25 New South Wales Crescent, Barton", "phone": "(02) 6142 3388", "school_name": "Telopea Park School P-6", "website": "https://www.transport.act.gov.au/getting-around/getting-to-school", "location": "POINT (149.133676 -35.31370238)"}, "geometry": {"type": "Point", "coordinates": [149.133676, -35.31370238]}}, {"type": "Feature", "properties": {"routenumber": 1012, "shift": 1614, "starttime": "3:21:00 PM", "vehiclestyle": "artW", "description": "Gungahlin Place, Ngunnawal, Moncrieff", "address": "26 Kelleway Ave, Nicholls", "phone": "(02) 6241 8640", "school_name": "Holy Spirit Primary School", "website": "https://www.transport.act.gov.au/getting-around/getting-to-school", "location": "POINT (149.1006741 -35.18067465)"}, "geometry": {"type": "Point", "coordinates": [149.1006741, -35.18067465]}}, {"type": "Feature", "properties": {"routenumber": 1044, "shift": 1445, "starttime": "3:17:00 PM", "vehiclestyle": "Euro", "description": "Melba, Spence, Evatt", "address": "15 Conley Drive, Melba", "phone": "(02) 6142 0333", "school_name": "Melba Copland Secondary School 7-10", "website": "https://www.transport.act.gov.au/getting-around/getting-to-school", "location": "POINT (149.0495119 -35.21366394)"}, "geometry": {"type": "Point", "coordinates": [149.0495119, -35.21366394]}}, {"type": "Feature", "properties": {"routenumber": 1054, "shift": 2545, "starttime": "2:58:00 PM", "vehiclestyle": "Std", "description": "Belconnen Interchanges Non Stop", "address": "4 Bindubi Street, Macquarie", "phone": "(02) 6142 0800", "school_name": "Canberra High School", "website": "https://www.transport.act.gov.au/getting-around/getting-to-school", "location": "POINT (149.0746957 -35.25166936)"}, "geometry": {"type": "Point", "coordinates": [149.0746957, -35.25166936]}}, {"type": "Feature", "properties": {"routenumber": 1015, "shift": 2539, "starttime": "3:10:00 PM", "vehiclestyle": "Std", "description": "Forde, Throsby", "address": "40 Wimmera St, Harrison", "phone": "(02) 6241 5604", "school_name": "Mother Teresa School", "website": "https://www.transport.act.gov.au/getting-around/getting-to-school", "location": "POINT (149.1530189 -35.19527691)"}, "geometry": {"type": "Point", "coordinates": [149.1530189, -35.19527691]}}, {"type": "Feature", "properties": {"routenumber": 1031, "shift": 1004, "starttime": "8:05:00 AM", "vehiclestyle": "PR 3", "description": "Watson, Downer,  Dickson, Ainslie, Campbell", "address": "24 White Cres, Campbell", "phone": "(02) 6249 8869", "school_name": "St Thomas More's Primary School", "website": "https://www.transport.act.gov.au/getting-around/getting-to-school", "location": "POINT (149.1556876 -35.28732792)"}, "geometry": {"type": "Point", "coordinates": [149.1556876, -35.28732792]}}, {"type": "Feature", "properties": {"routenumber": 2071, "shift": 2543, "starttime": "7:58:00 AM", "vehiclestyle": "Std", "description": "Chisholm Centre, Chisholm, Gilmore, Richardson", "address": "12 Mackinnon Street, Wanniassa", "phone": "(02) 6209 0100", "school_name": "St Mary Mackillop College - Junior Campus", "website": "https://www.transport.act.gov.au/getting-around/getting-to-school", "location": "POINT (149.0899328 -35.40541396)"}, "geometry": {"type": "Point", "coordinates": [149.0899328, -35.40541396]}}, {"type": "Feature", "properties": {"routenumber": 2014, "shift": 1621, "starttime": "3:28:00 PM", "vehiclestyle": "PR 3", "description": "Woden Interchange Non Stop", "address": "24 Grey Street, Deakin", "phone": "(02) 6202 6411", "school_name": "Canberra Girls Grammar Junior School", "website": "https://www.transport.act.gov.au/getting-around/getting-to-school", "location": "POINT (149.1109263 -35.31224635)"}, "geometry": {"type": "Point", "coordinates": [149.1109263, -35.31224635]}}, {"type": "Feature", "properties": {"routenumber": 2073, "shift": 2441, "starttime": "3:22:00 PM", "vehiclestyle": "Euro", "description": "Waramanga, Fisher, Stirling, Rivett, Chapman", "address": "34 McBryde Cres, Wanniassa", "phone": "(02) 6231 4177", "school_name": "Trinity Christian School", "website": "https://www.transport.act.gov.au/getting-around/getting-to-school", "location": "POINT (149.0865327 -35.40790103)"}, "geometry": {"type": "Point", "coordinates": [149.0865327, -35.40790103]}}, {"type": "Feature", "properties": {"routenumber": 2017, "shift": 2107, "starttime": "7:50:00 AM", "vehiclestyle": "Std", "description": "Mawson, Farrer, Isaacs, O'Malley", "address": "24 Grey Street, Deakin", "phone": "(02) 6202 6411", "school_name": "Canberra Girls Grammar Junior School", "website": "https://www.transport.act.gov.au/getting-around/getting-to-school", "location": "POINT (149.1109263 -35.31224635)"}, "geometry": {"type": "Point", "coordinates": [149.1109263, -35.31224635]}}, {"type": "Feature", "properties": {"routenumber": 2006, "shift": 2108, "starttime": "7:50:00 AM", "vehiclestyle": "Std", "description": "Cooleman Court, Rivett, Fisher, Waramanga, Stirling, Chapman", "address": "110 Canberra Avenue, Griffith", "phone": "(02) 6295 3598", "school_name": "St Edmund's College Canberra", "website": "https://www.transport.act.gov.au/getting-around/getting-to-school", "location": "POINT (149.1454991 -35.32276245)"}, "geometry": {"type": "Point", "coordinates": [149.1454991, -35.32276245]}}, {"type": "Feature", "properties": {"routenumber": 2045, "shift": 2626, "starttime": "3:28:00 PM", "vehiclestyle": "Std", "description": "O'Malley, Isaacs, Farrer, Mawson", "address": "27 Marr Street, Pearce", "phone": "(02) 6298 7271", "school_name": "Marist College Canberra", "website": "https://www.transport.act.gov.au/getting-around/getting-to-school", "location": "POINT (149.0882278 -35.35945117)"}, "geometry": {"type": "Point", "coordinates": [149.0882278, -35.35945117]}}, {"type": "Feature", "properties": {"routenumber": 1022, "shift": 1451, "starttime": "3:31:00 PM", "vehiclestyle": "Euro", "description": "Casey, Ngunnawal, Palmerston", "address": "121 Cowper Street, Dickson", "phone": "(02) 6245 6300", "school_name": "Daramalan College", "website": "https://www.transport.act.gov.au/getting-around/getting-to-school", "location": "POINT (149.1389186 -35.25300846)"}, "geometry": {"type": "Point", "coordinates": [149.1389186, -35.25300846]}}, {"type": "Feature", "properties": {"routenumber": 2064, "shift": 2321, "starttime": "8:10:00 AM", "vehiclestyle": "Euro", "description": "Banks, Lanyon Marketplace, Conder", "address": "90 Ellerston Ave, Isabella Plains", "phone": "(02) 6209 0100", "school_name": "St Mary Mackillop College - Senior Campus", "website": "https://www.transport.act.gov.au/getting-around/getting-to-school", "location": "POINT (149.0931127 -35.42505875)"}, "geometry": {"type": "Point", "coordinates": [149.0931127, -35.42505875]}}, {"type": "Feature", "properties": {"routenumber": 1032, "shift": 1563, "starttime": "8:16:00 AM", "vehiclestyle": "Euro", "description": "Ainslie, Hackett", "address": "25 Chauvel Street, Campbell", "phone": "(02) 6142 3580", "school_name": "Campbell Primary School", "website": "https://www.transport.act.gov.au/getting-around/getting-to-school", "location": "POINT (149.1560114 -35.29012735)"}, "geometry": {"type": "Point", "coordinates": [149.1560114, -35.29012735]}}, {"type": "Feature", "properties": {"routenumber": 2037, "shift": 2622, "starttime": "3:26:00 PM", "vehiclestyle": "Std", "description": "Yarralumla, Deakin, Curtin", "address": "27 Marr Street, Pearce", "phone": "(02) 6298 7271", "school_name": "Marist College Canberra", "website": "https://www.transport.act.gov.au/getting-around/getting-to-school", "location": "POINT (149.0882278 -35.35945117)"}, "geometry": {"type": "Point", "coordinates": [149.0882278, -35.35945117]}}, {"type": "Feature", "properties": {"routenumber": 2070, "shift": 2053, "starttime": "7:51:00 AM", "vehiclestyle": "Euro", "description": "O'Malley, Isaacs, Farrer, Mawson,Torrens", "address": "34 McBryde Cres, Wanniassa", "phone": "(02) 6231 4177", "school_name": "Trinity Christian School", "website": "https://www.transport.act.gov.au/getting-around/getting-to-school", "location": "POINT (149.0865327 -35.40790103)"}, "geometry": {"type": "Point", "coordinates": [149.0865327, -35.40790103]}}, {"type": "Feature", "properties": {"routenumber": 2078, "shift": 2116, "starttime": "8:15:00 AM", "vehiclestyle": "Std", "description": "Gordon, Banks, Conder, Lanyon Marketplace", "address": "82 Downard Street/6 Dougharty Place, Calwell", "phone": "(02) 6142 1900", "school_name": "Calwell Primary School", "website": "https://www.transport.act.gov.au/getting-around/getting-to-school", "location": "POINT (149.1090616 -35.438634)"}, "geometry": {"type": "Point", "coordinates": [149.1090616, -35.438634]}}, {"type": "Feature", "properties": {"routenumber": 2069, "shift": 2060, "starttime": "8:00:00 AM", "vehiclestyle": "Std", "description": "Calwell, Monash, Gowrie", "address": "161 Wheeler Cres, Wanniassa", "phone": "(02) 6231 4022", "school_name": "St Anthony's Parish Primary School", "website": "https://www.transport.act.gov.au/getting-around/getting-to-school", "location": "POINT (149.0805663 -35.39421182)"}, "geometry": {"type": "Point", "coordinates": [149.0805663, -35.39421182]}}, {"type": "Feature", "properties": {"routenumber": 2036, "shift": 2403, "starttime": "3:15:00 PM", "vehiclestyle": "Euro", "description": "Kambah Only. Not Gleneagles", "address": "27 Marr Street, Pearce", "phone": "(02) 6298 7271", "school_name": "Marist College Canberra", "website": "https://www.transport.act.gov.au/getting-around/getting-to-school", "location": "POINT (149.0882278 -35.35945117)"}, "geometry": {"type": "Point", "coordinates": [149.0882278, -35.35945117]}}, {"type": "Feature", "properties": {"routenumber": 2024, "shift": 2016, "starttime": "8:12:00 AM", "vehiclestyle": "Std", "description": "The Causeway, Symonston, Narrabundah, Red Hill, Griffith, Manuka", "address": "25 New South Wales Crescent, Barton", "phone": "(02) 6142 3388", "school_name": "Telopea Park School 7-10", "website": "https://www.transport.act.gov.au/getting-around/getting-to-school", "location": "POINT (149.1336759 -35.31370184)"}, "geometry": {"type": "Point", "coordinates": [149.1336759, -35.31370184]}}, {"type": "Feature", "properties": {"routenumber": 2014, "shift": 2356, "starttime": "7:55:00 AM", "vehiclestyle": "Std", "description": "Woden Interchange Non Stop", "address": "40 Monaro Cres, Red Hill", "phone": "(02) 6260 9700", "school_name": "Canberra Grammar School", "website": "https://www.transport.act.gov.au/getting-around/getting-to-school", "location": "POINT (149.1278506 -35.33109178)"}, "geometry": {"type": "Point", "coordinates": [149.1278506, -35.33109178]}}, {"type": "Feature", "properties": {"routenumber": 2035, "shift": 2539, "starttime": "7:44:00 AM", "vehiclestyle": "Std", "description": "Gleneagles, Kambah", "address": "141 O'Halloran Circuit, Kambah", "phone": "(02) 6142 0900", "school_name": "Namadgi School 7-10", "website": "https://www.transport.act.gov.au/getting-around/getting-to-school", "location": "POINT (149.0673593 -35.39250607)"}, "geometry": {"type": "Point", "coordinates": [149.0673593, -35.39250607]}}, {"type": "Feature", "properties": {"routenumber": 1050, "shift": 1531, "starttime": "8:10:00 AM", "vehiclestyle": "PR 3", "description": "Belconnen Interchanges Non Stop", "address": "111 Murranji Street, Hawker", "phone": "(02) 6142 1698", "school_name": "Belconnen High School", "website": "https://www.transport.act.gov.au/getting-around/getting-to-school", "location": "POINT (149.039008 -35.24739818)"}, "geometry": {"type": "Point", "coordinates": [149.039008, -35.24739818]}}, {"type": "Feature", "properties": {"routenumber": 2061, "shift": 2002, "starttime": "7:55:00 AM", "vehiclestyle": "Std", "description": "Gordon, Isabella Plains", "address": "12 Mackinnon Street, Wanniassa", "phone": "(02) 6209 0100", "school_name": "St Mary Mackillop College - Junior Campus", "website": "https://www.transport.act.gov.au/getting-around/getting-to-school", "location": "POINT (149.0899328 -35.40541396)"}, "geometry": {"type": "Point", "coordinates": [149.0899328, -35.40541396]}}, {"type": "Feature", "properties": {"routenumber": 2003, "shift": 2620, "starttime": "3:35:00 PM", "vehiclestyle": "Std", "description": "Gordon, Banks, Conder, Lanyon Marketplace, Isabella Plains, Chisholm", "address": "110 Canberra Avenue, Griffith", "phone": "(02) 6295 3598", "school_name": "St Edmund's College Canberra", "website": "https://www.transport.act.gov.au/getting-around/getting-to-school", "location": "POINT (149.1454991 -35.32276245)"}, "geometry": {"type": "Point", "coordinates": [149.1454991, -35.32276245]}}, {"type": "Feature", "properties": {"routenumber": 2057, "shift": 2431, "starttime": "3:27:00 PM", "vehiclestyle": "Euro", "description": "Woden Interchange, Cooleman Court", "address": "49 Mulley St, Holder", "phone": "(02) 6288 7688", "school_name": "St Jude's Primary School", "website": "https://www.transport.act.gov.au/getting-around/getting-to-school", "location": "POINT (149.0499123 -35.33419454)"}, "geometry": {"type": "Point", "coordinates": [149.0499123, -35.33419454]}}, {"type": "Feature", "properties": {"routenumber": 1020, "shift": 1626, "starttime": "3:31:00 PM", "vehiclestyle": "PR 3", "description": "Gungahlin Place, Franklin, Harrison", "address": "10 Wise Street, Braddon", "phone": "(02) 6243 4100", "school_name": "Merici College", "website": "https://www.transport.act.gov.au/getting-around/getting-to-school", "location": "POINT (149.1367055 -35.26688713)"}, "geometry": {"type": "Point", "coordinates": [149.1367055, -35.26688713]}}, {"type": "Feature", "properties": {"routenumber": 2044, "shift": 2353, "starttime": "7:50:00 AM", "vehiclestyle": "Euro", "description": "Cooleman Court, Weston, Lyons, Woden Interchange", "address": "41 Marr Street, Pearce", "phone": "(02) 6142 0700", "school_name": "Melrose High School", "website": "https://www.transport.act.gov.au/getting-around/getting-to-school", "location": "POINT (149.0885994 -35.36276738)"}, "geometry": {"type": "Point", "coordinates": [149.0885994, -35.36276738]}}, {"type": "Feature", "properties": {"routenumber": 1056, "shift": 1311, "starttime": "7:13:00 AM", "vehiclestyle": "Euro", "description": "Palmerston, Nicholls, Giralang, Kaleen", "address": "1 College Street, Bruce", "phone": "(02) 6162 6200", "school_name": "Radford College", "website": "https://www.transport.act.gov.au/getting-around/getting-to-school", "location": "POINT (149.0874449 -35.24460475)"}, "geometry": {"type": "Point", "coordinates": [149.0874449, -35.24460475]}}, {"type": "Feature", "properties": {"routenumber": 1045, "shift": 1438, "starttime": "3:13:00 PM", "vehiclestyle": "Euro", "description": "Gungahlin Place, Ngunnawal, Casey, Nicholls, Spence, Melba", "address": "12 Barnard Circ, Florey", "phone": "(02) 6258 1055", "school_name": "St Francis Xavier College", "website": "https://www.transport.act.gov.au/getting-around/getting-to-school", "location": "POINT (149.0411711 -35.22499669)"}, "geometry": {"type": "Point", "coordinates": [149.0411711, -35.22499669]}}, {"type": "Feature", "properties": {"routenumber": 2062, "shift": 2444, "starttime": "3:25:00 PM", "vehiclestyle": "Euro", "description": "Kambah East, Gleneagles", "address": "161 Wheeler Cres, Wanniassa", "phone": "(02) 6231 4022", "school_name": "St Anthony's Parish Primary School", "website": "https://www.transport.act.gov.au/getting-around/getting-to-school", "location": "POINT (149.0805663 -35.39421182)"}, "geometry": {"type": "Point", "coordinates": [149.0805663, -35.39421182]}}, {"type": "Feature", "properties": {"routenumber": 2079, "shift": 2115, "starttime": "8:30:00 AM", "vehiclestyle": "Std", "description": "Isabella Plains, Calwell", "address": "78 Lawrence-Wackett Cres, Theodore", "phone": "(02) 6142 3100", "school_name": "Theodore Primary School", "website": "https://www.transport.act.gov.au/getting-around/getting-to-school", "location": "POINT (149.1235447 -35.4475478)"}, "geometry": {"type": "Point", "coordinates": [149.1235447, -35.4475478]}}, {"type": "Feature", "properties": {"routenumber": 2056, "shift": 1207, "starttime": "7:57:00 AM", "vehiclestyle": "Euro", "description": "Belconnen Interchanges", "address": "35 Mulley St, Holder", "phone": "(02) 6287 1962", "school_name": "Canberra Montessori School", "website": "https://www.transport.act.gov.au/getting-around/getting-to-school", "location": "POINT (149.0505814 -35.33221873)"}, "geometry": {"type": "Point", "coordinates": [149.0505814, -35.33221873]}}, {"type": "Feature", "properties": {"routenumber": 1038, "shift": 1045, "starttime": "7:48:00 AM", "vehiclestyle": "Euro", "description": "Fraser West, Dunlop, Macgregor", "address": "12 Stutchbury Street, Page", "phone": "(02) 6254 2653", "school_name": "St Matthew's Primary School", "website": "https://www.transport.act.gov.au/getting-around/getting-to-school", "location": "POINT (149.0429345 -35.24020178)"}, "geometry": {"type": "Point", "coordinates": [149.0429345, -35.24020178]}}, {"type": "Feature", "properties": {"routenumber": 2037, "shift": 2017, "starttime": "7:35:00 AM", "vehiclestyle": "Std", "description": "Yarralumla, Deakin, Curtin", "address": "41 Marr Street, Pearce", "phone": "(02) 6142 0700", "school_name": "Melrose High School", "website": "https://www.transport.act.gov.au/getting-around/getting-to-school", "location": "POINT (149.0885994 -35.36276738)"}, "geometry": {"type": "Point", "coordinates": [149.0885994, -35.36276738]}}, {"type": "Feature", "properties": {"routenumber": 2071, "shift": 2440, "starttime": "3:23:00 PM", "vehiclestyle": "Euro", "description": "Chisholm Centre, Chisholm, Gilmore, Richardson", "address": "90 Ellerston Ave, Isabella Plains", "phone": "(02) 6209 0100", "school_name": "St Mary Mackillop College - Senior Campus", "website": "https://www.transport.act.gov.au/getting-around/getting-to-school", "location": "POINT (149.0931127 -35.42505875)"}, "geometry": {"type": "Point", "coordinates": [149.0931127, -35.42505875]}}, {"type": "Feature", "properties": {"routenumber": 2017, "shift": 2628, "starttime": "3:40:00 PM", "vehiclestyle": "PR 3", "description": "Mawson, Farrer, Isaacs, O'Malley", "address": "15 Alexander Street, 18 Golden Grove, Red Hill", "phone": "(02) 6260 9600", "school_name": "Canberra Grammar Junior School", "website": "https://www.transport.act.gov.au/getting-around/getting-to-school", "location": "POINT (149.124805 -35.33241923)"}, "geometry": {"type": "Point", "coordinates": [149.124805, -35.33241923]}}, {"type": "Feature", "properties": {"routenumber": 2074, "shift": 2332, "starttime": "8:00:00 AM", "vehiclestyle": "Std", "description": "Tuggeranong Interchange, Monash, Gowrie, Fadden, Erindale Interchange, Wanniassa", "address": "184 Wheeler Cres, Wanniassa", "phone": "(02) 6142 1870", "school_name": "Wanniassa School 7-10", "website": "https://www.transport.act.gov.au/getting-around/getting-to-school", "location": "POINT (149.0853008 -35.39471089)"}, "geometry": {"type": "Point", "coordinates": [149.0853008, -35.39471089]}}, {"type": "Feature", "properties": {"routenumber": 1041, "shift": 1053, "starttime": "8:29:00 AM", "vehiclestyle": "Euro", "description": "Kippax, Holt, Higgins", "address": "38 Pawsey Circ, Florey", "phone": "(02) 6258 3592", "school_name": "St John The Apostle Primary School", "website": "https://www.transport.act.gov.au/getting-around/getting-to-school", "location": "POINT (149.0417248 -35.22679501)"}, "geometry": {"type": "Point", "coordinates": [149.0417248, -35.22679501]}}, {"type": "Feature", "properties": {"routenumber": 2014, "shift": 1309, "starttime": "8:02:00 AM", "vehiclestyle": "Std", "description": "Woden Interchange Non Stop", "address": "24 Grey Street, Deakin", "phone": "(02) 6202 6411", "school_name": "Canberra Girls Grammar Junior School", "website": "https://www.transport.act.gov.au/getting-around/getting-to-school", "location": "POINT (149.1109263 -35.31224635)"}, "geometry": {"type": "Point", "coordinates": [149.1109263, -35.31224635]}}, {"type": "Feature", "properties": {"routenumber": 2040, "shift": 2536, "starttime": "7:53:00 AM", "vehiclestyle": "Std", "description": "Duffy, Holder, Cooleman Court", "address": "27 Marr Street, Pearce", "phone": "(02) 6298 7271", "school_name": "Marist College Canberra", "website": "https://www.transport.act.gov.au/getting-around/getting-to-school", "location": "POINT (149.0882278 -35.35945117)"}, "geometry": {"type": "Point", "coordinates": [149.0882278, -35.35945117]}}, {"type": "Feature", "properties": {"routenumber": 1024, "shift": 1452, "starttime": "3:33:00 PM", "vehiclestyle": "Euro", "description": "Gungahlin Place, Franklin", "address": "10 Wise Street, Braddon", "phone": "(02) 6243 4100", "school_name": "Merici College", "website": "https://www.transport.act.gov.au/getting-around/getting-to-school", "location": "POINT (149.1367055 -35.26688713)"}, "geometry": {"type": "Point", "coordinates": [149.1367055, -35.26688713]}}, {"type": "Feature", "properties": {"routenumber": 2005, "shift": 2110, "starttime": "8:00:00 AM", "vehiclestyle": "PR 3", "description": "Duffy, Holder", "address": "7 McMillan Cres, Griffith", "phone": "(02) 6260 9400", "school_name": "St Clare's College", "website": "https://www.transport.act.gov.au/getting-around/getting-to-school", "location": "POINT (149.1464467 -35.32363989)"}, "geometry": {"type": "Point", "coordinates": [149.1464467, -35.32363989]}}, {"type": "Feature", "properties": {"routenumber": 2072, "shift": 2447, "starttime": "3:30:00 PM", "vehiclestyle": "Euro", "description": "Duffy, Holder, Cooleman Court via Namatjira Dr", "address": "34 McBryde Cres, Wanniassa", "phone": "(02) 6231 4177", "school_name": "Trinity Christian School", "website": "https://www.transport.act.gov.au/getting-around/getting-to-school", "location": "POINT (149.0865327 -35.40790103)"}, "geometry": {"type": "Point", "coordinates": [149.0865327, -35.40790103]}},